{"version": 0.6, "generator": "Overpass API 0.7.62.10 2d4cfc48", "osm3s": {"timestamp_osm_base": "2026-03-10T18:56:06Z", "copyright": "The data included in this document is from www.openstreetmap.org. The data is made available under ODbL."}, "elements": [{"type": "node", "id": 671022, "lat": 36.7014631, "lon": -118.755997, "tags": {"alt_name:vi": "California;Ca-li-pho\u00f3c-ni-a;Ca-li-pho-ni-a", "name": "California", "name:abbreviation": "Calif.", "name:af": "Kaliforni\u00eb", "name:als": "Kalifornien", "name:am": "\u12ab\u120a\u134e\u122d\u1292\u12eb", "name:an": "California", "name:ang": "California", "name:ar": "\u0643\u0627\u0644\u064a\u0641\u0648\u0631\u0646\u064a\u0627", "name:arz": "\u0643\u0627\u0644\u064a\u0641\u0648\u0631\u0646\u064a\u0627", "name:ast": "California", "name:ay": "California suyu", "name:az": "Kaliforniya", "name:azb": "\u06a9\u0627\u0644\u06cc\u0641\u0648\u0631\u0646\u06cc\u0627 \u0627\u06cc\u0627\u0644\u062a\u06cc", "name:ba": "\u041a\u0430\u043b\u0438\u0444\u043e\u0440\u043d\u0438\u044f", "name:bar": "Kalifornien", "name:bat-smg": "Kal\u0117fuorn\u0117j\u0117", "name:bcl": "California", "name:be": "\u041a\u0430\u043b\u0456\u0444\u043e\u0440\u043d\u0456\u044f", "name:be-tarask": "\u041a\u0430\u043b\u0456\u0444\u043e\u0440\u043d\u0456\u044f", "name:bg": "\u041a\u0430\u043b\u0438\u0444\u043e\u0440\u043d\u0438\u044f", "name:bh": "\u0915\u0948\u0932\u093f\u092b\u094b\u0930\u094d\u0928\u093f\u092f\u093e", "name:bi": "Kalifornia", "name:bn": "\u0995\u09cd\u09af\u09be\u09b2\u09bf\u09ab\u09cb\u09b0\u09cd\u09a8\u09bf\u09af\u09bc\u09be", "name:bo": "\u0f41\u0fb0\u0f0b\u0f63\u0f7a\u0f0b\u0f67\u0fa5\u0f7c\u0f62\u0f0b\u0f53\u0f72\u0f0b\u0f61\u0f0d", "name:bpy": "\u0995\u09cd\u09af\u09be\u09b2\u09bf\u09ab\u09cb\u09b0\u09cd\u09a8\u09bf\u09af\u09bc\u09be", "name:br": "Kalifornia", "name:bs": "Kalifornija", "name:bxr": "\u041a\u0430\u043b\u0438\u0444\u043e\u0440\u043d\u0438", "name:ca": "Calif\u00f2rnia", "name:cbk-zam": "California", "name:cdo": "California", "name:ce": "\u041a\u0430\u043b\u0438\u0444\u043e\u0440\u043d\u0438", "name:ceb": "California", "name:chy": "California", "name:ckb": "\u06a9\u0627\u0644\u06cc\u0641\u06c6\u0631\u0646\u06cc\u0627", "name:co": "California", "name:cs": "Kalifornie", "name:cv": "\u041a\u0430\u043b\u0438\u0444\u043e\u0440\u043d\u0438", "name:cy": "Califfornia", "name:da": "Californien", "name:de": "Kalifornien", "name:diq": "Kaliforniya", "name:dsb": "Kaliforniska", "name:el": "\u039a\u03b1\u03bb\u03b9\u03c6\u03cc\u03c1\u03bd\u03b9\u03b1", "name:eml": "Calif\u00f2rgna", "name:en": "California", "name:eo": "Kalifornio", "name:es": "California", "name:et": "California", "name:eu": "Kalifornia", "name:fa": "\u06a9\u0627\u0644\u06cc\u0641\u0631\u0646\u06cc\u0627", "name:fi": "Kalifornia", "name:fo": "Kalifornia", "name:fr": "Californie", "name:frp": "California", "name:frr": "California", "name:fy": "Kalifornje", "name:ga": "California", "name:gag": "Kaliforniya", "name:gan": "\u52a0\u5229\u798f\u5c3c\u4e9e\u5dde", "name:gd": "Calaf\u00f2rnia", "name:gl": "California", "name:gn": "California", "name:got": "\ud800\udf3a\ud800\udf30\ud800\udf3b\ud800\udf39\ud800\udf46\ud800\udf30\ud800\udf3f\ud800\udf42\ud800\udf3d\ud800\udf3e\ud800\udf30", "name:gu": "\u0a95\u0ac7\u0ab2\u0abf\u0aab\u0acb\u0ab0\u0acd\u0aa8\u0abf\u0aaf\u0abe", "name:gv": "California", "name:ha": "California", "name:hak": "California", "name:haw": "Kaleponi", "name:he": "\u05e7\u05dc\u05d9\u05e4\u05d5\u05e8\u05e0\u05d9\u05d4", "name:hi": "\u0915\u0948\u0932\u093f\u092b\u093c\u094b\u0930\u094d\u0928\u093f\u092f\u093e", "name:hif": "California", "name:hr": "Kalifornija", "name:hsb": "Kaliforniska", "name:ht": "Kalif\u00f2ni", "name:hu": "Kalifornia", "name:hy": "\u053f\u0561\u056c\u056b\u0586\u0578\u057c\u0576\u056b\u0561", "name:ia": "California", "name:id": "California", "name:ie": "California", "name:ig": "California", "name:ik": "California", "name:ilo": "California", "name:io": "Kalifornia", "name:is": "Kaliforn\u00eda", "name:it": "California", "name:iu": "\u1473\u14d6\u1434\u1550\u14c3\u140a", "name:ja": "\u30ab\u30ea\u30d5\u30a9\u30eb\u30cb\u30a2\u5dde", "name:jbo": "la .kaliforniias.", "name:jv": "California", "name:ka": "\u10d9\u10d0\u10da\u10d8\u10e4\u10dd\u10e0\u10dc\u10d8\u10d0", "name:kaa": "Kaliforniya shtati", "name:kab": "Kalifurnya", "name:kbp": "Kal\u0269f\u0254rnii", "name:kk": "\u041a\u0430\u043b\u0438\u0444\u043e\u0440\u043d\u0438\u044f", "name:km": "\u1780\u17b6\u179b\u17b8\u17a0\u17d2\u179c\u1789\u17c9\u17b6", "name:kn": "\u0c95\u0ccd\u0caf\u0cbe\u0cb2\u0cbf\u0cab\u0cca\u0cb0\u0ccd\u0ca8\u0cbf\u0caf", "name:ko": "\uce98\ub9ac\ud3ec\ub2c8\uc544", "name:krc": "\u041a\u0430\u043b\u0438\u0444\u043e\u0440\u043d\u0438\u044f", "name:ku": "Kal\u00eeforniya", "name:kw": "Kaliforni", "name:ky": "\u041a\u0430\u043b\u0438\u0444\u043e\u0440\u043d\u0438\u044f", "name:la": "California", "name:lad": "Kalifornia", "name:lb": "Kalifornien", "name:lfn": "California", "name:li": "Californi\u00eb", "name:lij": "California", "name:lmo": "California", "name:lrc": "\u06a9\u0627\u0644\u064a\u0641\u0648\u0631\u0646\u064a\u0627", "name:lt": "Kalifornija", "name:lv": "Kalifornija", "name:mai": "\u0915\u094d\u092f\u093e\u0932\u093f\u092b\u094b\u0930\u094d\u0928\u093f\u092f\u093e", "name:mg": "Kalifornia", "name:mhr": "\u041a\u0430\u043b\u0438\u0444\u043e\u0440\u043d\u0438\u0439", "name:mi": "Karap\u014dnia", "name:mk": "\u041a\u0430\u043b\u0438\u0444\u043e\u0440\u043d\u0438\u0458\u0430", "name:ml": "\u0d15\u0d3e\u0d32\u0d3f\u0d2b\u0d4b\u0d7c\u0d23\u0d3f\u0d2f", "name:mn": "\u041a\u0430\u043b\u0438\u0444\u043e\u0440\u043d\u0438", "name:mo": "\u041a\u0430\u043b\u0438\u0444\u043e\u0440\u043d\u0438\u044f", "name:mr": "\u0915\u0945\u0932\u093f\u092b\u094b\u0930\u094d\u0928\u093f\u092f\u093e", "name:mrj": "\u041a\u0430\u043b\u0438\u0444\u043e\u0440\u043d\u0438", "name:ms": "California", "name:my": "\u1000\u101a\u103a\u101c\u102e\u1016\u102d\u102f\u1038\u1014\u102e\u1038\u101a\u102c\u1038\u1015\u103c\u100a\u103a\u1014\u101a\u103a", "name:mzn": "\u06a9\u0627\u0644\u06cc\u0641\u0631\u0646\u06cc\u0627", "name:na": "California", "name:nah": "California", "name:nan": "California", "name:nds": "Kalifornien", "name:nds-nl": "Kaliforni\u00eb", "name:ne": "\u0915\u094d\u092f\u093e\u0932\u093f\u092b\u094b\u0930\u094d\u0928\u093f\u092f\u093e", "name:new": "\u0915\u094d\u092f\u093e\u0932\u093f\u092b\u094b\u0930\u094d\u0928\u093f\u092f\u093e", "name:nl": "Californi\u00eb", "name:nn": "California", "name:no": "California", "name:nv": "Ah\u00e9\u00e9h\u00e1sh\u012f\u0301\u012f\u0301h Hahoodzo", "name:oc": "Calif\u00f2rnia", "name:os": "\u041a\u0430\u043b\u0438\u0444\u043e\u0440\u043d\u0438", "name:pa": "\u0a15\u0a48\u0a32\u0a40\u0a2b\u0a3c\u0a4b\u0a30\u0a28\u0a40\u0a06", "name:pag": "California", "name:pam": "California", "name:pap": "California", "name:pcd": "Californie", "name:pdc": "Kalifornie", "name:pfl": "Kalifornien", "name:pi": "\u0915\u094d\u092f\u093e\u0932\u093f\u092b\u094b\u0930\u094d\u0928\u093f\u092f\u093e", "name:pl": "Kalifornia", "name:pms": "Calif\u00f2rnia", "name:pnb": "\u06a9\u06cc\u0644\u06cc\u0641\u0648\u0631\u0646\u06cc\u0627", "name:ps": "\u06a9\u0627\u0644\u06cc\u0641\u0631\u0646\u06cc\u0627", "name:pt": "Calif\u00f3rnia", "name:qu": "California suyu", "name:rm": "California", "name:ro": "California", "name:ru": "\u041a\u0430\u043b\u0438\u0444\u043e\u0440\u043d\u0438\u044f", "name:sa": "\u0915\u093e\u0932\u093f\u092b\u093c\u094b\u0930\u094d\u0928\u093f\u092f\u093e", "name:sah": "\u041a\u0430\u043b\u0438\u0444\u043e\u0440\u043d\u0438\u044f", "name:sc": "Calif\u00f2rnia", "name:scn": "California", "name:sco": "Californie", "name:sd": "\u06aa\u064a\u0644\u064a\u0641\u0648\u0631\u0646\u064a\u0627", "name:se": "Kalifornia", "name:sh": "Kalifornija", "name:sk": "Kalifornia", "name:sl": "Kalifornija", "name:sm": "Kalefonia", "name:so": "Kalifornia", "name:sq": "Kalifornia", "name:sr": "\u041a\u0430\u043b\u0438\u0444\u043e\u0440\u043d\u0438\u0458\u0430", "name:stq": "Kalifornien", "name:su": "Kalifornia", "name:sv": "Kalifornien", "name:sw": "California", "name:szl": "Kalifor\u0144ijo", "name:ta": "\u0b95\u0bb2\u0bbf\u0baa\u0bcb\u0bb0\u0bcd\u0ba9\u0bbf\u0baf\u0bbe", "name:te": "\u0c15\u0c3e\u0c32\u0c3f\u0c2b\u0c4b\u0c30\u0c4d\u0c28\u0c3f\u0c2f\u0c3e", "name:tet": "California", "name:tg": "\u041a\u0430\u043b\u0438\u0444\u043e\u0440\u043d\u0438\u044f", "name:th": "\u0e23\u0e31\u0e10\u0e41\u0e04\u0e25\u0e34\u0e1f\u0e2d\u0e23\u0e4c\u0e40\u0e19\u0e35\u0e22", "name:tl": "California", "name:tok": "ma Kaliponija", "name:tr": "Kaliforniya", "name:tt": "\u041a\u0430\u043b\u0438\u0444\u043e\u0440\u043d\u0438\u044f", "name:tzl": "Californica", "name:ug": "Kaliforniye Shitati", "name:uk": "\u041a\u0430\u043b\u0456\u0444\u043e\u0440\u043d\u0456\u044f", "name:ur": "\u06a9\u06cc\u0644\u06cc\u0641\u0648\u0631\u0646\u06cc\u0627", "name:uz": "Kaliforniya", "name:vec": "Ca\u0142ifornia", "name:vi": "Ca Li", "name:vo": "Kaliforn\u00e4n", "name:wa": "Californeye", "name:war": "California", "name:wuu": "\u52a0\u5229\u798f\u5c3c\u4e9a", "name:xal": "\u041a\u0430\u043b\u0438\u0444\u043e\u0440\u043d\u0438\u044f", "name:xh": "IKhalifoniya", "name:xmf": "\u10d9\u10d0\u10da\u10d8\u10e4\u10dd\u10e0\u10dc\u10d8\u10d0", "name:yi": "\u05e7\u05d0\u05dc\u05d9\u05e4\u05d0\u05e8\u05e0\u05d9\u05e2", "name:yo": "Kalif\u1ecd\u0301rn\u00ed\u00e0", "name:yue": "\u52a0\u5229\u798f\u5c3c\u4e9e\u5dde", "name:zea": "California", "name:zh": "\u52a0\u5229\u798f\u5c3c\u4e9a\u5dde;\u52a0\u5229\u798f\u5c3c\u4e9e\u5dde", "name:zh-Hans": "\u52a0\u5229\u798f\u5c3c\u4e9a\u5dde", "name:zh-Hant": "\u52a0\u5229\u798f\u5c3c\u4e9e\u5dde", "name:zu": "California", "place": "state", "population": "39431263", "population:date": "2024-07-01", "ref": "CA", "ref:USCG": "CF", "ref:USPS": "CA", "short_name": "Calif.", "source:population": "United States Census Bureau", "source:short_name": "Associated Press", "state_code": "CA", "wikidata": "Q99", "wikipedia": "en:California"}}, {"type": "node", "id": 26666117, "lat": 33.7300334, "lon": -117.8337689}, {"type": "node", "id": 35059361, "lat": 41.9930264, "lon": -120.294438}, {"type": "node", "id": 35252054, "lat": 41.9930116, "lon": -120.2967225}, {"type": "node", "id": 35275810, "lat": 41.9930093, "lon": -120.298099}, {"type": "node", "id": 35283437, "lat": 41.9930178, "lon": -120.2997762}, {"type": "node", "id": 54189256, "lat": 35.0050353, "lon": -117.6324494}, {"type": "node", "id": 54284124, "lat": 35.0281097, "lon": -117.6327991, "tags": {"attribution": "USGS 2001 County Boundary", "source": "county_import_v0.1"}}, {"type": "node", "id": 54347666, "lat": 35.0133972, "lon": -117.6326454, "tags": {"attribution": "USGS 2001 County Boundary", "source": "county_import_v0.1"}}, {"type": "node", "id": 54381791, "lat": 34.0194009, "lon": -117.3753716}, {"type": "node", "id": 54494428, "lat": 34.0187262, "lon": -117.2706326}, {"type": "node", "id": 54571799, "lat": 35.1759756, "lon": -114.8493262}, {"type": "node", "id": 54607884, "lat": 35.4758179, "lon": -115.225294}, {"type": "node", "id": 54882732, "lat": 35.6073349, "lon": -115.3914662}, {"type": "node", "id": 54884861, "lat": 35.5079778, "lon": -117.630324}, {"type": "node", "id": 84952008, "lat": 41.9984068, "lon": -124.2082658}, {"type": "node", "id": 85204218, "lat": 41.995697, "lon": -123.793648}, {"type": "node", "id": 85204223, "lat": 41.9957804, "lon": -123.7895679}, {"type": "node", "id": 85204270, "lat": 41.9958162, "lon": -123.7875509}, {"type": "node", "id": 87700100, "lat": 32.7285594, "lon": -114.617831}, {"type": "node", "id": 87952436, "lat": 34.9987074, "lon": -117.6322185}, {"type": "node", "id": 88190555, "lat": 35.3946044, "lon": -117.6322367}, {"type": "node", "id": 88585109, "lat": 35.2741195, "lon": -117.631454, "tags": {"attribution": "USGS 2001 County Boundary", "source": "county_import_v0.1"}}, {"type": "node", "id": 88757453, "lat": 35.6030507, "lon": -117.6345322}, {"type": "node", "id": 89295768, "lat": 35.3470945, "lon": -117.6313029, "tags": {"attribution": "USGS 2001 County Boundary", "source": "county_import_v0.1"}}, {"type": "node", "id": 89784397, "lat": 38.6875955, "lon": -119.5485623}, {"type": "node", "id": 89807791, "lat": 38.4176075, "lon": -119.1615529}, {"type": "node", "id": 90052535, "lat": 39.315912, "lon": -120.0053779}, {"type": "node", "id": 90156661, "lat": 39.2273774, "lon": -120.0057012}, {"type": "node", "id": 91855129, "lat": 39.635755, "lon": -120.0012678}, {"type": "node", "id": 91867459, "lat": 39.6732259, "lon": -120.001114, "tags": {"highway": "milestone"}}, {"type": "node", "id": 92085513, "lat": 39.6738816, "lon": -120.001116, "tags": {"distance": "0", "highway": "milestone"}}, {"type": "node", "id": 92127481, "lat": 39.468382, "lon": -120.0027794}, {"type": "node", "id": 92127569, "lat": 39.4683038, "lon": -120.0026289}, {"type": "node", "id": 94018294, "lat": 42.0054144, "lon": -122.6156441, "tags": {"maxspeed": "65 mph", "traffic_sign": "maxspeed", "traffic_sign:direction": "forward"}}, {"type": "node", "id": 95562114, "lat": 34.7013685, "lon": -118.8383299}, {"type": "node", "id": 122612586, "lat": 33.9497038, "lon": -117.9658811}, {"type": "node", "id": 122613777, "lat": 33.7937668, "lon": -118.0110804}, {"type": "node", "id": 122635010, "lat": 33.6696267, "lon": -117.8593068, "tags": {"highway": "traffic_signals", "traffic_signals": "traffic_lights"}}, {"type": "node", "id": 122637491, "lat": 33.9460704, "lon": -117.9581126}, {"type": "node", "id": 122645494, "lat": 33.7335274, "lon": -117.8637548}, {"type": "node", "id": 122645512, "lat": 33.7336031, "lon": -117.8563895, "tags": {"highway": "traffic_signals", "traffic_signals": "traffic_lights"}}, {"type": "node", "id": 122647336, "lat": 33.7137839, "lon": -117.8963622}, {"type": "node", "id": 122647376, "lat": 33.7140986, "lon": -117.8962285}, {"type": "node", "id": 122672079, "lat": 33.7351307, "lon": -117.8564558}, {"type": "node", "id": 122672151, "lat": 33.7133291, "lon": -117.8967182}, {"type": "node", "id": 122675352, "lat": 33.7120049, "lon": -117.8974832}, {"type": "node", "id": 122689228, "lat": 33.7231848, "lon": -117.9014998, "tags": {"highway": "stop", "stop": "all"}}, {"type": "node", "id": 122689251, "lat": 33.7231069, "lon": -117.8942465}, {"type": "node", "id": 122690388, "lat": 33.720213, "lon": -117.9024723}, {"type": "node", "id": 122691084, "lat": 33.7732947, "lon": -117.844446, "tags": {"highway": "traffic_signals", "traffic_signals": "traffic_lights"}}, {"type": "node", "id": 122691087, "lat": 33.7747715, "lon": -117.8444461}, {"type": "node", "id": 122691089, "lat": 33.7758601, "lon": -117.8444475}, {"type": "node", "id": 122691092, "lat": 33.7761348, "lon": -117.8444468}, {"type": "node", "id": 122701887, "lat": 33.853447, "lon": -118.0689141}, {"type": "node", "id": 122715817, "lat": 33.7875137, "lon": -118.0718596}, {"type": "node", "id": 122718379, "lat": 33.7217437, "lon": -117.9019655}, {"type": "node", "id": 122727599, "lat": 33.9073733, "lon": -117.8637973}, {"type": "node", "id": 122750904, "lat": 33.9460812, "lon": -117.9520953}, {"type": "node", "id": 122772209, "lat": 33.9531185, "lon": -118.0988309}, {"type": "node", "id": 122778680, "lat": 33.7391247, "lon": -117.856458}, {"type": "node", "id": 122778687, "lat": 33.7372999, "lon": -117.8564509}, {"type": "node", "id": 122778691, "lat": 33.7365834, "lon": -117.8564525}, {"type": "node", "id": 122778697, "lat": 33.7358662, "lon": -117.8564541}, {"type": "node", "id": 122778700, "lat": 33.7344187, "lon": -117.8564349}, {"type": "node", "id": 122782119, "lat": 33.7256753, "lon": -117.900654}, {"type": "node", "id": 122782165, "lat": 33.7253993, "lon": -117.9007444}, {"type": "node", "id": 122802053, "lat": 33.7166155, "lon": -117.9037205}, {"type": "node", "id": 122809853, "lat": 33.7125788, "lon": -117.8853996, "tags": {"highway": "traffic_signals"}}, {"type": "node", "id": 122809859, "lat": 33.7098307, "lon": -117.8854487, "tags": {"highway": "traffic_signals"}}, {"type": "node", "id": 122812252, "lat": 33.7180788, "lon": -117.9032229}, {"type": "node", "id": 122845439, "lat": 33.7194355, "lon": -117.9027297}, {"type": "node", "id": 122857332, "lat": 34.0408524, "lon": -117.7984314}, {"type": "node", "id": 122860461, "lat": 33.727217, "lon": -117.900154, "tags": {"highway": "traffic_signals", "traffic_signals": "traffic_lights"}}, {"type": "node", "id": 122860464, "lat": 33.7264521, "lon": -117.9004068}, {"type": "node", "id": 122860466, "lat": 33.7248858, "lon": -117.9009293}, {"type": "node", "id": 122860468, "lat": 33.7241131, "lon": -117.901193}, {"type": "node", "id": 122860469, "lat": 33.7210292, "lon": -117.9022021}, {"type": "node", "id": 122860470, "lat": 33.718731, "lon": -117.9029629, "tags": {"highway": "stop", "stop": "all"}}, {"type": "node", "id": 122869115, "lat": 33.7239879, "lon": -117.8941926}, {"type": "node", "id": 122869119, "lat": 33.7195528, "lon": -117.89597}, {"type": "node", "id": 122869121, "lat": 33.7188808, "lon": -117.8961136, "tags": {"highway": "traffic_signals"}}, {"type": "node", "id": 122869130, "lat": 33.7094328, "lon": -117.8975106}, {"type": "node", "id": 122887796, "lat": 33.7764012, "lon": -117.8444516}, {"type": "node", "id": 122892216, "lat": 33.780474, "lon": -118.0753764}, {"type": "node", "id": 122899444, "lat": 33.7805286, "lon": -118.0721947}, {"type": "node", "id": 122956349, "lat": 33.7806439, "lon": -118.0758435}, {"type": "node", "id": 122969590, "lat": 33.7804602, "lon": -118.072273}, {"type": "node", "id": 122981417, "lat": 34.0377869, "lon": -117.7947596}, {"type": "node", "id": 122982579, "lat": 33.7810212, "lon": -118.0761166}, {"type": "node", "id": 123045777, "lat": 33.7808803, "lon": -118.076058}, {"type": "node", "id": 123045782, "lat": 33.7807527, "lon": -118.0759656}, {"type": "node", "id": 123100014, "lat": 33.7805676, "lon": -118.0757156}, {"type": "node", "id": 123100016, "lat": 33.7804861, "lon": -118.0754652}, {"type": "node", "id": 123100962, "lat": 33.8461424, "lon": -118.0634573}, {"type": "node", "id": 123162140, "lat": 33.8878182, "lon": -118.0448321}, {"type": "node", "id": 123194046, "lat": 33.9541267, "lon": -118.100285}, {"type": "node", "id": 123194059, "lat": 33.9512883, "lon": -118.0956673}, {"type": "node", "id": 123252872, "lat": 33.9616776, "lon": -118.0682858}, {"type": "node", "id": 123341055, "lat": 33.9378715, "lon": -117.9765263}, {"type": "node", "id": 123383930, "lat": 34.0006669, "lon": -118.0678312, "tags": {"access": "private", "barrier": "gate"}}, {"type": "node", "id": 123415603, "lat": 34.0373403, "lon": -117.7935819}, {"type": "node", "id": 123415606, "lat": 34.0380109, "lon": -117.7951656}, {"type": "node", "id": 123415613, "lat": 34.0383333, "lon": -117.7957315}, {"type": "node", "id": 123415615, "lat": 34.0387096, "lon": -117.7962863}, {"type": "node", "id": 123415618, "lat": 34.0390098, "lon": -117.7966632}, {"type": "node", "id": 123425028, "lat": 34.8182266, "lon": -118.6180494}, {"type": "node", "id": 123610935, "lat": 34.0370334, "lon": -117.7923376}, {"type": "node", "id": 137642911, "lat": 35.6070746, "lon": -115.3911309}, {"type": "node", "id": 139677503, "lat": 38.1605049, "lon": -118.7977672}, {"type": "node", "id": 140544282, "lat": 39.6724757, "lon": -120.001113}, {"type": "node", "id": 141044787, "lat": 36.1672084, "lon": -116.1082246}, {"type": "node", "id": 150936088, "lat": 33.9316066, "lon": -117.9454867, "tags": {"ele": "91", "name": "La Habra", "place": "town", "population": "59264", "population:date": "2006", "source:population": "US Census", "wikidata": "Q948071"}}, {"type": "node", "id": 150942319, "lat": 33.9793521, "lon": -118.0651248, "tags": {"ele": "66", "gnis:feature_id": "1661672", "name": "West Whittier", "place": "suburb", "population": "25540", "wikidata": "Q1898652"}}, {"type": "node", "id": 150943145, "lat": 33.9830688, "lon": -118.096735, "tags": {"ele": "50", "name": "Pico Rivera", "place": "town", "population": "64336", "population:date": "2006", "source:population": "US Census", "wikidata": "Q828706"}}, {"type": "node", "id": 150950322, "lat": 33.9604546, "lon": -117.9504255, "tags": {"name": "La Habra Heights", "place": "suburb", "population": "5970", "wikidata": "Q143269"}}, {"type": "node", "id": 150952968, "lat": 33.9480787, "lon": -118.0691499, "tags": {"ele": "41", "name": "Santa Fe Springs", "place": "town", "population": "17112", "wikidata": "Q948045"}}, {"type": "node", "id": 150958886, "lat": 34.1081621, "lon": -117.28946, "tags": {"capital": "6", "ele": "321", "gnis:feature_id": "1661375", "name": "San Bernardino", "name:ar": "\u0633\u0627\u0646 \u0628\u0631\u0646\u0627\u0631\u062f\u064a\u0646\u0648", "name:be": "\u0421\u0430\u043d-\u0411\u0435\u0440\u043d\u0430\u0440\u0434\u044b\u043d\u0430", "name:de": "San Bernardino", "name:en": "San Bernardino", "name:es": "San Bernardino", "name:fr": "San Bernardino", "name:it": "San Bernardino", "name:ja": "\u30b5\u30f3\u30d0\u30fc\u30ca\u30fc\u30c7\u30a3\u30fc\u30ce", "name:ko": "\uc0cc\ubc84\ub108\ub514\ub178", "name:nl": "San Bernardino", "name:pl": "San Bernardino", "name:pt": "San Bernardino", "name:ru": "\u0421\u0430\u043d-\u0411\u0435\u0440\u043d\u0430\u0440\u0434\u0438\u043d\u043e", "name:uk": "\u0421\u0430\u043d-\u0411\u0435\u0440\u043d\u0430\u0440\u0434\u0456\u043d\u043e", "name:zh": "\u8056\u8c9d\u7d0d\u8fea\u8afe", "place": "city", "population": "222101", "population:date": "2020", "source:population": "US Census", "website": "https://www.sanbernardino.gov", "wikidata": "Q486168"}}, {"type": "node", "id": 150959789, "lat": 38.5810606, "lon": -121.493895, "tags": {"alt_name:ar": "\u0633\u0627\u0643\u0631\u0645\u064a\u0646\u062a\u0648", "capital": "4", "ele": "9", "gnis:feature_id": "1659564", "name": "Sacramento", "name:am": "\u1233\u12ad\u122b\u1218\u1295\u1276", "name:an": "Sacramento", "name:ang": "Sacramento", "name:ar": "\u0633\u0627\u0643\u0631\u0627\u0645\u0646\u062a\u0648", "name:az": "Sakramento", "name:be": "\u0421\u0430\u043a\u0440\u0430\u043c\u0435\u043d\u0442\u0430", "name:bg": "\u0421\u0430\u043a\u0440\u0430\u043c\u0435\u043d\u0442\u043e", "name:bi": "Sacramento", "name:bn": "\u09b8\u09cd\u09af\u09be\u0995\u09cd\u09b0\u09be\u09ae\u09c7\u09a8\u09cd\u099f\u09cb", "name:br": "Sacramento", "name:ce": "\u0421\u0430\u043a\u0440\u0430\u043c\u0435\u043d\u0442\u043e", "name:co": "Sacramento", "name:de": "Sacramento", "name:el": "\u03a3\u03b1\u03ba\u03c1\u03b1\u03bc\u03ad\u03bd\u03c4\u03bf", "name:en": "Sacramento", "name:eo": "Sakramento", "name:es": "Sacramento", "name:fa": "\u0633\u0627\u06a9\u0631\u0627\u0645\u0646\u062a\u0648", "name:fr": "Sacramento", "name:fy": "Sacramento", "name:ga": "Sacramento", "name:gd": "Sacramento", "name:gl": "Sacramento", "name:he": "\u05e1\u05e7\u05e8\u05de\u05e0\u05d8\u05d5", "name:hi": "\u0938\u0948\u0915\u094d\u0930\u093e\u092e\u0947\u0923\u094d\u091f\u094b", "name:hr": "Sacramento", "name:ht": "Sakwam\u00e8nto", "name:hu": "Sacramento", "name:hy": "\u054d\u0561\u056f\u0580\u0561\u0574\u0565\u0576\u057f\u0578", "name:ia": "Sacramento", "name:id": "Sacramento", "name:io": "Sacramento", "name:it": "Sacramento", "name:ja": "\u30b5\u30af\u30e9\u30e1\u30f3\u30c8", "name:ka": "\u10e1\u10d0\u10d9\u10e0\u10d0\u10db\u10d4\u10dc\u10e2\u10dd", "name:ko": "\uc0c8\ud06c\ub77c\uba58\ud1a0", "name:kw": "Sacramento", "name:la": "Sacramentum", "name:lb": "Sacramento", "name:li": "Sacramento", "name:lt": "Sakramentas", "name:lv": "Sakramento", "name:mg": "Sacramento", "name:mk": "\u0421\u0430\u043a\u0440\u0430\u043c\u0435\u043d\u0442\u043e", "name:ml": "\u0d38\u0d3e\u0d15\u0d4d\u0d30\u0d2e\u0d46\u0d28\u0d4d\u0d31\u0d4b", "name:mn": "\u0421\u0430\u043a\u0440\u0430\u043c\u0435\u043d\u0442\u043e", "name:mr": "\u0938\u093e\u0915\u094d\u0930\u093e\u092e\u0947\u0902\u091f\u094b", "name:ms": "Sacramento", "name:my": "\u1006\u102c\u1001\u101b\u102c\u1019\u1014\u103a\u1010\u102d\u102f\u1019\u103c\u102d\u102f\u1037", "name:nl": "Sacramento", "name:no": "Sacramento", "name:nv": "Ch\u00e9ch\u02bciltah T\u00f3\u0144l\u012f\u0301", "name:oc": "Sacramento", "name:os": "\u0421\u0430\u043a\u0440\u0430\u043c\u0435\u043d\u0442\u043e", "name:pa": "\u0a38\u0a48\u0a15\u0a30\u0a3e\u0a2e\u0a48\u0a02\u0a1f\u0a4b", "name:pi": "\u0938\u0947\u0915\u094d\u0930\u093e\u092e\u0947\u0928\u094d\u091f\u094b", "name:pl": "Sacramento", "name:pt": "Sacramento", "name:qu": "Sacramento", "name:ro": "Sacramento", "name:ru": "\u0421\u0430\u043a\u0440\u0430\u043c\u0435\u043d\u0442\u043e", "name:sa": "\u0938\u093e\u0915\u094d\u0930\u093e\u092e\u0947\u0928\u094d\u091f\u094b", "name:sc": "Sacramento", "name:sd": "\u0633\u0626\u06aa\u0631\u0627\u0645\u0626\u0646\u067d\u0648", "name:sk": "Sacramento", "name:sr": "\u0421\u0430\u043a\u0440\u0430\u043c\u0435\u043d\u0442\u043e", "name:sw": "Sacramento", "name:ta": "\u0b9a\u0bc7\u0b95\u0bcd\u0bb0\u0bae\u0bc6\u0ba3\u0bcd\u0b9f\u0bcb", "name:tg": "\u0421\u0430\u043a\u0440\u0430\u043c\u0435\u043d\u0442\u043e", "name:th": "\u0e41\u0e0b\u0e04\u0e23\u0e32\u0e40\u0e21\u0e19\u0e42\u0e15", "name:tl": "Sacramento", "name:tt": "\u0421\u04d9\u043a\u0440\u0430\u043c\u0435\u043d\u0442\u043e", "name:ug": "\u0633\u0627\u0643\u0631\u0627\u0645\u06d0\u0646\u062a\u0648", "name:uk": "\u0421\u0430\u043a\u0440\u0430\u043c\u0435\u043d\u0442\u043e", "name:ur": "\u0633\u06a9\u0631\u0627\u0645\u0646\u0679\u0648", "name:uz": "Sacramento", "name:vi": "Sacramento", "name:vo": "Sacramento", "name:yi": "\u05e1\u05d0\u05e7\u05e8\u05d0\u05de\u05e2\u05e0\u05d8\u05d0", "name:zh": "\u6c99\u52a0\u7dec\u5ea6;\u8428\u514b\u62c9\u95e8\u6258", "name:zh-Hans": "\u8428\u514b\u62c9\u95e8\u6258", "name:zh-Hant": "\u6c99\u52a0\u7dec\u5ea6", "place": "city", "population": "490712", "population:date": "2010", "state_capital": "yes", "website": "https://www.cityofsacramento.gov/", "wikidata": "Q18013", "wikipedia": "en:Sacramento, California"}}, {"type": "node", "id": 150963169, "lat": 33.9749136, "lon": -118.0338664, "tags": {"ele": "112", "name": "Whittier", "name:ar": "\u0648\u064a\u062a\u064a\u0631", "name:de": "Whittier", "name:en": "Whittier", "name:es": "Whittier", "name:fr": "Whittier", "name:it": "Whittier", "name:ja": "\u30a6\u30a3\u30c3\u30c6\u30a3\u30a2", "name:ko": "\ud718\ud2f0\uc5b4", "name:nl": "Whittier", "name:pl": "Whittier", "name:pt": "Whittier", "name:ru": "\u0423\u0438\u0442\u0442\u044c\u0435\u0440", "name:uk": "\u0412\u0456\u0442\u0442\u0456\u0435\u0440", "name:zh": "\u60e0\u8482\u5c14", "place": "town", "population": "84015", "population:date": "2006", "source:population": "US Census", "wikidata": "Q838791", "wikipedia": "en:Whittier, California"}}, {"type": "node", "id": 150963381, "lat": 33.623439, "lon": -117.920581, "tags": {"gnis:feature_id": "1661105", "name": "Newport Heights", "place": "quarter", "wikidata": "Q14683490", "wikipedia": "en:Newport Heights, Newport Beach"}}, {"type": "node", "id": 150963599, "lat": 34.0182252, "lon": -117.9593061, "tags": {"ele": "98", "gnis:feature_id": "243853", "name": "City of Industry", "place": "suburb", "population": "264", "population:date": "2020", "short_name": "Industry", "wikidata": "Q927094", "wikipedia": "en:City of Industry, California"}}, {"type": "node", "id": 150964913, "lat": 33.5983813, "lon": -117.890066, "tags": {"alt_name": "Balboa", "gnis:feature_id": "238908", "name": "Balboa Peninsula", "place": "suburb", "wikidata": "Q2889678", "wikipedia": "en:Balboa Peninsula, Newport Beach"}}, {"type": "node", "id": 150971352, "lat": 33.7457982, "lon": -117.9834996, "tags": {"ele": "12", "gnis:feature_id": "1661025", "name": "Midway City", "place": "suburb", "wikidata": "Q3313488", "wikipedia": "en:Midway City, California"}}, {"type": "node", "id": 150977631, "lat": 33.9366769, "lon": -118.028805, "tags": {"ele": "54", "gnis:feature_id": "1661484", "name": "South Whittier", "note": "South Whittier is an unincorporated area of Los Angeles County. Administered by the county..", "place": "suburb", "population": "57156", "wikidata": "Q531275"}}, {"type": "node", "id": 150981354, "lat": 33.8503463, "lon": -118.117191, "tags": {"name": "Lakewood", "place": "town", "population": "80055", "wikidata": "Q838757", "wikipedia": "en:Lakewood, California"}}, {"type": "node", "id": 158803069, "lat": 33.5280804, "lon": -118.5796671}, {"type": "node", "id": 158805225, "lat": 33.5313359, "lon": -118.5893316}, {"type": "node", "id": 175818888, "lat": 32.7290173, "lon": -114.6247144}, {"type": "node", "id": 259566946, "lat": 33.7550624, "lon": -118.0981785}, {"type": "node", "id": 259566947, "lat": 33.7548521, "lon": -118.098346}, {"type": "node", "id": 259566948, "lat": 33.7546343, "lon": -118.0985796}, {"type": "node", "id": 259566949, "lat": 33.7541855, "lon": -118.0993433}, {"type": "node", "id": 259566950, "lat": 33.7539137, "lon": -118.09991}, {"type": "node", "id": 259566951, "lat": 33.7538206, "lon": -118.1002013}, {"type": "node", "id": 259566952, "lat": 33.7536512, "lon": -118.1005699}, {"type": "node", "id": 259566953, "lat": 33.753429, "lon": -118.1009865}, {"type": "node", "id": 259566954, "lat": 33.7531324, "lon": -118.1013701}, {"type": "node", "id": 263273722, "lat": 42.0039496, "lon": -123.2313434}, {"type": "node", "id": 263276400, "lat": 35.6516078, "lon": -117.634322, "tags": {"attribution": "USGS 2001 County Boundary", "source": "county_import_v0.1"}}, {"type": "node", "id": 263281913, "lat": 35.112077, "lon": -117.631077, "tags": {"attribution": "USGS 2001 County Boundary", "source": "county_import_v0.1"}}, {"type": "node", "id": 263285037, "lat": 42.007769, "lon": -122.289533}, {"type": "node", "id": 263285175, "lat": 35.3324165, "lon": -117.6313448, "tags": {"attribution": "USGS 2001 County Boundary", "source": "county_import_v0.1"}}, {"type": "node", "id": 263299901, "lat": 41.993781, "lon": -120.879481}, {"type": "node", "id": 263300721, "lat": 35.5807379, "lon": -117.6346258, "tags": {"attribution": "USGS 2001 County Boundary", "source": "county_import_v0.1"}}, {"type": "node", "id": 263302410, "lat": 34.9835504, "lon": -117.6326188, "tags": {"attribution": "USGS 2001 County Boundary", "source": "county_import_v0.1"}}, {"type": "node", "id": 263304468, "lat": 38.4144963, "lon": -119.1571281}, {"type": "node", "id": 263308002, "lat": 41.998598, "lon": -124.2170964, "tags": {"maritime": "yes"}}, {"type": "node", "id": 263308452, "lat": 35.1249617, "lon": -117.6311883, "tags": {"attribution": "USGS 2001 County Boundary", "source": "county_import_v0.1"}}, {"type": "node", "id": 263309664, "lat": 35.5642347, "lon": -117.6345923, "tags": {"attribution": "USGS 2001 County Boundary", "source": "county_import_v0.1"}}, {"type": "node", "id": 263311762, "lat": 37.8962361, "lon": -118.428163}, {"type": "node", "id": 263316741, "lat": 38.5354279, "lon": -119.3300837}, {"type": "node", "id": 263317126, "lat": 35.5641627, "lon": -117.630064, "tags": {"attribution": "USGS 2001 County Boundary", "source": "county_import_v0.1"}}, {"type": "node", "id": 263317785, "lat": 35.1559058, "lon": -117.6313603, "tags": {"attribution": "USGS 2001 County Boundary", "source": "county_import_v0.1"}}, {"type": "node", "id": 263329866, "lat": 35.072117, "lon": -117.632733, "tags": {"attribution": "USGS 2001 County Boundary", "source": "county_import_v0.1"}}, {"type": "node", "id": 263333245, "lat": 35.3749031, "lon": -117.6316538, "tags": {"attribution": "USGS 2001 County Boundary", "source": "county_import_v0.1"}}, {"type": "node", "id": 263585116, "lat": 39.1125657, "lon": -120.0060785}, {"type": "node", "id": 263585422, "lat": 36.9711106, "lon": -117.1660009}, {"type": "node", "id": 279153220, "lat": 34.7171907, "lon": -114.4869399}, {"type": "node", "id": 316944811, "lat": 34.3155072, "lon": -118.209681, "tags": {"name": "Los Angeles", "name:es": "Los \u00c1ngeles", "place": "county"}}, {"type": "node", "id": 316944819, "lat": 33.750631, "lon": -117.8722311, "tags": {"name": "Orange", "name:vi": "Qu\u1eadn Cam", "name:zh": "\u6a59\u7e23", "name:zh-Hans": "\u6a59\u53bf", "name:zh-Hant-CN": "\u6a59\u7e23", "name:zh-Hant-HK": "\u6a59\u7e23", "name:zh-Hant-TW": "\u6a58\u90e1", "place": "county"}}, {"type": "node", "id": 316944822, "lat": 34.8253019, "lon": -116.0833144, "tags": {"name": "San Bernardino County", "place": "county"}}, {"type": "node", "id": 318414663, "lat": 36.7569902, "lon": -116.880767}, {"type": "node", "id": 318414676, "lat": 37.0167006, "lon": -117.2269331}, {"type": "node", "id": 318414681, "lat": 37.3451652, "lon": -117.6695867}, {"type": "node", "id": 318419514, "lat": 35.795677, "lon": -117.1167121}, {"type": "node", "id": 355734002, "lat": 34.004921, "lon": -116.929347}, {"type": "node", "id": 355734010, "lat": 34.0048574, "lon": -116.9378282}, {"type": "node", "id": 357656276, "lat": 33.4840738, "lon": -117.5093858}, {"type": "node", "id": 371917855, "lat": 34.1563274, "lon": -114.3021915}, {"type": "node", "id": 372114675, "lat": 32.7292886, "lon": -114.62694}, {"type": "node", "id": 372114708, "lat": 32.7290339, "lon": -114.624093}, {"type": "node", "id": 372114723, "lat": 32.7292272, "lon": -114.6225993}, {"type": "node", "id": 372114763, "lat": 32.7292335, "lon": -114.6212565}, {"type": "node", "id": 372114813, "lat": 32.7290608, "lon": -114.6203932}, {"type": "node", "id": 372114875, "lat": 32.7285915, "lon": -114.6185054}, {"type": "node", "id": 372114882, "lat": 32.7286461, "lon": -114.6163237}, {"type": "node", "id": 372114889, "lat": 32.7287213, "lon": -114.6157487}, {"type": "node", "id": 372448882, "lat": 34.1873423, "lon": -114.2286354}, {"type": "node", "id": 372454061, "lat": 33.6388561, "lon": -114.5242549}, {"type": "node", "id": 372455138, "lat": 33.6023294, "lon": -114.5329368}, {"type": "node", "id": 372455356, "lat": 34.304187, "lon": -114.1379438}, {"type": "node", "id": 373162111, "lat": 33.9885672, "lon": -117.7151702}, {"type": "node", "id": 373162112, "lat": 33.9876569, "lon": -117.7151743}, {"type": "node", "id": 373162114, "lat": 33.9876613, "lon": -117.7166259}, {"type": "node", "id": 373162115, "lat": 33.9876474, "lon": -117.7173554}, {"type": "node", "id": 373162116, "lat": 33.9862472, "lon": -117.7173326}, {"type": "node", "id": 373162117, "lat": 33.9866372, "lon": -117.7202249}, {"type": "node", "id": 373162118, "lat": 33.9869893, "lon": -117.7209063}, {"type": "node", "id": 373162120, "lat": 33.9897244, "lon": -117.7209224}, {"type": "node", "id": 373162122, "lat": 33.989866, "lon": -117.7209111}, {"type": "node", "id": 373162124, "lat": 33.989867, "lon": -117.720492}, {"type": "node", "id": 373162125, "lat": 33.989867, "lon": -117.720393}, {"type": "node", "id": 373162126, "lat": 33.989877, "lon": -117.718998}, {"type": "node", "id": 373162127, "lat": 33.9898615, "lon": -117.718407}, {"type": "node", "id": 373162129, "lat": 33.9898528, "lon": -117.7162887}, {"type": "node", "id": 373162132, "lat": 33.9903352, "lon": -117.7167436}, {"type": "node", "id": 373162141, "lat": 33.9909316, "lon": -117.716647}, {"type": "node", "id": 373162143, "lat": 33.992065, "lon": -117.7177516}, {"type": "node", "id": 373162145, "lat": 33.9927928, "lon": -117.7184441}, {"type": "node", "id": 373162149, "lat": 33.994322, "lon": -117.7196385}, {"type": "node", "id": 373162150, "lat": 33.9950369, "lon": -117.7201851}, {"type": "node", "id": 373162152, "lat": 33.9959212, "lon": -117.7207625}, {"type": "node", "id": 373162155, "lat": 33.996703, "lon": -117.7212673}, {"type": "node", "id": 373162156, "lat": 33.9974711, "lon": -117.7216196}, {"type": "node", "id": 373162158, "lat": 33.9985495, "lon": -117.7220407}, {"type": "node", "id": 373162162, "lat": 34.0009559, "lon": -117.7230959}, {"type": "node", "id": 373162163, "lat": 34.001571, "lon": -117.7235129}, {"type": "node", "id": 373162165, "lat": 34.0020087, "lon": -117.723786}, {"type": "node", "id": 373162167, "lat": 34.0024983, "lon": -117.7241473}, {"type": "node", "id": 373162168, "lat": 34.0027921, "lon": -117.7243919}, {"type": "node", "id": 373162172, "lat": 34.0035057, "lon": -117.725067}, {"type": "node", "id": 373162175, "lat": 34.003896, "lon": -117.7255186}, {"type": "node", "id": 373162176, "lat": 34.0045289, "lon": -117.7262071}, {"type": "node", "id": 373162183, "lat": 34.005185, "lon": -117.726855}, {"type": "node", "id": 373162184, "lat": 34.0059977, "lon": -117.7276795}, {"type": "node", "id": 373162209, "lat": 34.006168, "lon": -117.7280263}, {"type": "node", "id": 373162210, "lat": 34.0071313, "lon": -117.7294198}, {"type": "node", "id": 373162226, "lat": 34.0077925, "lon": -117.7300842}, {"type": "node", "id": 373162228, "lat": 34.0082009, "lon": -117.7305078}, {"type": "node", "id": 373162229, "lat": 34.0087382, "lon": -117.7310357}, {"type": "node", "id": 373162233, "lat": 34.009329, "lon": -117.7316365}, {"type": "node", "id": 373162235, "lat": 34.0097859, "lon": -117.7320834}, {"type": "node", "id": 373162236, "lat": 34.010523, "lon": -117.7328097}, {"type": "node", "id": 373162240, "lat": 34.0110318, "lon": -117.7333043}, {"type": "node", "id": 373162243, "lat": 34.0112418, "lon": -117.7328375}, {"type": "node", "id": 373162498, "lat": 34.018792, "lon": -117.7354985}, {"type": "node", "id": 373162620, "lat": 34.0411417, "lon": -117.7260253}, {"type": "node", "id": 373163731, "lat": 33.975286, "lon": -117.5998006}, {"type": "node", "id": 373164116, "lat": 33.92499, "lon": -117.655696}, {"type": "node", "id": 373164118, "lat": 33.925189, "lon": -117.655812}, {"type": "node", "id": 373164119, "lat": 33.925948, "lon": -117.656253}, {"type": "node", "id": 373164120, "lat": 33.926636, "lon": -117.65666}, {"type": "node", "id": 373164121, "lat": 33.926912, "lon": -117.656823}, {"type": "node", "id": 373164123, "lat": 33.927182, "lon": -117.656987}, {"type": "node", "id": 373164125, "lat": 33.927333, "lon": -117.657079}, {"type": "node", "id": 373164127, "lat": 33.927649, "lon": -117.657259}, {"type": "node", "id": 373164133, "lat": 33.927767, "lon": -117.65733}, {"type": "node", "id": 373164136, "lat": 33.928118, "lon": -117.657543}, {"type": "node", "id": 373164137, "lat": 33.928531, "lon": -117.657813}, {"type": "node", "id": 373164138, "lat": 33.929244, "lon": -117.658296}, {"type": "node", "id": 373164139, "lat": 33.929287, "lon": -117.658327}, {"type": "node", "id": 373164142, "lat": 33.929464, "lon": -117.658453}, {"type": "node", "id": 373164143, "lat": 33.929468, "lon": -117.658456}, {"type": "node", "id": 373164144, "lat": 33.929682, "lon": -117.658621}, {"type": "node", "id": 373164146, "lat": 33.929998, "lon": -117.658874}, {"type": "node", "id": 373164147, "lat": 33.930139, "lon": -117.658987}, {"type": "node", "id": 373164148, "lat": 33.930181, "lon": -117.659021}, {"type": "node", "id": 373164149, "lat": 33.930578, "lon": -117.659309}, {"type": "node", "id": 373164150, "lat": 33.930726, "lon": -117.659416}, {"type": "node", "id": 373164156, "lat": 33.930835, "lon": -117.659514}, {"type": "node", "id": 373164164, "lat": 33.931162, "lon": -117.65981}, {"type": "node", "id": 373164165, "lat": 33.931271, "lon": -117.659909}, {"type": "node", "id": 373164166, "lat": 33.93131, "lon": -117.659751}, {"type": "node", "id": 373164167, "lat": 33.931346, "lon": -117.659612}, {"type": "node", "id": 373164168, "lat": 33.931352, "lon": -117.659587}, {"type": "node", "id": 373164169, "lat": 33.931764, "lon": -117.659966}, {"type": "node", "id": 373164170, "lat": 33.933284, "lon": -117.661362}, {"type": "node", "id": 373164171, "lat": 33.933428, "lon": -117.66161}, {"type": "node", "id": 373164172, "lat": 33.933692, "lon": -117.662065}, {"type": "node", "id": 373164173, "lat": 33.934418, "lon": -117.662712}, {"type": "node", "id": 373164174, "lat": 33.93479, "lon": -117.663043}, {"type": "node", "id": 373164175, "lat": 33.935494, "lon": -117.663704}, {"type": "node", "id": 373164176, "lat": 33.93656, "lon": -117.664632}, {"type": "node", "id": 373164177, "lat": 33.936591, "lon": -117.66466}, {"type": "node", "id": 373164178, "lat": 33.937303, "lon": -117.665324}, {"type": "node", "id": 373164179, "lat": 33.937513, "lon": -117.66552}, {"type": "node", "id": 373164180, "lat": 33.937601, "lon": -117.665602}, {"type": "node", "id": 373164183, "lat": 33.938147, "lon": -117.666108}, {"type": "node", "id": 373164185, "lat": 33.938359, "lon": -117.666305}, {"type": "node", "id": 373164188, "lat": 33.939382, "lon": -117.667255}, {"type": "node", "id": 373164190, "lat": 33.940357, "lon": -117.66816}, {"type": "node", "id": 373164194, "lat": 33.942331, "lon": -117.670004}, {"type": "node", "id": 373164209, "lat": 33.942447, "lon": -117.670115}, {"type": "node", "id": 373164215, "lat": 33.942897, "lon": -117.670548}, {"type": "node", "id": 373164216, "lat": 33.943455, "lon": -117.671084}, {"type": "node", "id": 373164217, "lat": 33.943528, "lon": -117.671154}, {"type": "node", "id": 373164218, "lat": 33.94375, "lon": -117.671367}, {"type": "node", "id": 373164219, "lat": 33.943824, "lon": -117.671438}, {"type": "node", "id": 373164220, "lat": 33.944562, "lon": -117.672129}, {"type": "node", "id": 373164221, "lat": 33.944751, "lon": -117.672306}, {"type": "node", "id": 373164222, "lat": 33.944866, "lon": -117.672422}, {"type": "node", "id": 373164223, "lat": 33.945679, "lon": -117.673089}, {"type": "node", "id": 373164224, "lat": 33.946055, "lon": -117.67338}, {"type": "node", "id": 373164225, "lat": 33.946258, "lon": -117.673524}, {"type": "node", "id": 373164226, "lat": 33.94695, "lon": -117.673975}, {"type": "node", "id": 373164227, "lat": 33.946958, "lon": -117.67398}, {"type": "node", "id": 373164228, "lat": 33.947562, "lon": -117.674395}, {"type": "node", "id": 373164229, "lat": 33.947801, "lon": -117.67454}, {"type": "node", "id": 373164230, "lat": 33.947812, "lon": -117.674408}, {"type": "node", "id": 373164231, "lat": 33.947818, "lon": -117.674352}, {"type": "node", "id": 373164232, "lat": 33.947846, "lon": -117.674014}, {"type": "node", "id": 373164233, "lat": 33.947857, "lon": -117.673883}, {"type": "node", "id": 373164234, "lat": 33.947563, "lon": -117.673077}, {"type": "node", "id": 373164235, "lat": 33.94748, "lon": -117.67285}, {"type": "node", "id": 373164236, "lat": 33.947484, "lon": -117.672763}, {"type": "node", "id": 373164237, "lat": 33.947471, "lon": -117.672247}, {"type": "node", "id": 373164238, "lat": 33.94748, "lon": -117.672114}, {"type": "node", "id": 373164239, "lat": 33.947509, "lon": -117.67191}, {"type": "node", "id": 373164240, "lat": 33.947704, "lon": -117.671079}, {"type": "node", "id": 373164241, "lat": 33.947821, "lon": -117.67067}, {"type": "node", "id": 373164242, "lat": 33.947846, "lon": -117.670566}, {"type": "node", "id": 373164243, "lat": 33.94799, "lon": -117.669987}, {"type": "node", "id": 373164244, "lat": 33.948039, "lon": -117.669853}, {"type": "node", "id": 373164245, "lat": 33.948091, "lon": -117.669748}, {"type": "node", "id": 373164246, "lat": 33.94826, "lon": -117.669171}, {"type": "node", "id": 373164247, "lat": 33.948278, "lon": -117.669101}, {"type": "node", "id": 373164248, "lat": 33.948808, "lon": -117.667151}, {"type": "node", "id": 373164249, "lat": 33.948985, "lon": -117.666502}, {"type": "node", "id": 373164250, "lat": 33.949085, "lon": -117.666585}, {"type": "node", "id": 373164256, "lat": 33.949316, "lon": -117.66673}, {"type": "node", "id": 373164259, "lat": 33.949706, "lon": -117.66702}, {"type": "node", "id": 373164260, "lat": 33.949915, "lon": -117.667185}, {"type": "node", "id": 373164261, "lat": 33.950091, "lon": -117.667383}, {"type": "node", "id": 373164263, "lat": 33.950592, "lon": -117.667778}, {"type": "node", "id": 373164264, "lat": 33.951328, "lon": -117.668418}, {"type": "node", "id": 373164267, "lat": 33.951594, "lon": -117.668629}, {"type": "node", "id": 373164268, "lat": 33.951834, "lon": -117.668821}, {"type": "node", "id": 373164273, "lat": 33.952137, "lon": -117.669104}, {"type": "node", "id": 373164279, "lat": 33.952236, "lon": -117.669236}, {"type": "node", "id": 373164282, "lat": 33.952335, "lon": -117.669401}, {"type": "node", "id": 373164284, "lat": 33.952428, "lon": -117.669573}, {"type": "node", "id": 373164285, "lat": 33.9525, "lon": -117.669691}, {"type": "node", "id": 373164286, "lat": 33.952615, "lon": -117.66981}, {"type": "node", "id": 373164288, "lat": 33.952791, "lon": -117.669948}, {"type": "node", "id": 373164290, "lat": 33.953016, "lon": -117.670113}, {"type": "node", "id": 373164291, "lat": 33.953214, "lon": -117.670252}, {"type": "node", "id": 373164292, "lat": 33.95372, "lon": -117.670628}, {"type": "node", "id": 373164294, "lat": 33.95388, "lon": -117.670766}, {"type": "node", "id": 373164298, "lat": 33.954028, "lon": -117.670905}, {"type": "node", "id": 373164303, "lat": 33.954155, "lon": -117.671037}, {"type": "node", "id": 373164307, "lat": 33.954298, "lon": -117.671215}, {"type": "node", "id": 373164312, "lat": 33.954452, "lon": -117.671459}, {"type": "node", "id": 373164316, "lat": 33.954831, "lon": -117.671967}, {"type": "node", "id": 373164318, "lat": 33.95499, "lon": -117.672145}, {"type": "node", "id": 373164320, "lat": 33.955249, "lon": -117.672409}, {"type": "node", "id": 373164323, "lat": 33.95543, "lon": -117.672541}, {"type": "node", "id": 373164325, "lat": 33.955557, "lon": -117.672646}, {"type": "node", "id": 373164326, "lat": 33.955672, "lon": -117.672686}, {"type": "node", "id": 373164327, "lat": 33.955744, "lon": -117.672732}, {"type": "node", "id": 373164328, "lat": 33.955832, "lon": -117.672805}, {"type": "node", "id": 373164329, "lat": 33.955942, "lon": -117.672917}, {"type": "node", "id": 373164330, "lat": 33.956019, "lon": -117.672976}, {"type": "node", "id": 373164331, "lat": 33.956151, "lon": -117.673062}, {"type": "node", "id": 373164333, "lat": 33.956546, "lon": -117.67326}, {"type": "node", "id": 373164334, "lat": 33.956761, "lon": -117.673392}, {"type": "node", "id": 373164335, "lat": 33.957052, "lon": -117.67355}, {"type": "node", "id": 373164336, "lat": 33.957206, "lon": -117.673642}, {"type": "node", "id": 373164337, "lat": 33.957432, "lon": -117.673807}, {"type": "node", "id": 373164338, "lat": 33.957569, "lon": -117.673933}, {"type": "node", "id": 373164339, "lat": 33.957794, "lon": -117.67415}, {"type": "node", "id": 373164340, "lat": 33.958157, "lon": -117.674473}, {"type": "node", "id": 373164341, "lat": 33.958487, "lon": -117.674751}, {"type": "node", "id": 373164342, "lat": 33.958839, "lon": -117.675034}, {"type": "node", "id": 373164344, "lat": 33.959083, "lon": -117.675265}, {"type": "node", "id": 373164345, "lat": 33.959499, "lon": -117.675661}, {"type": "node", "id": 373164346, "lat": 33.95973, "lon": -117.675852}, {"type": "node", "id": 373164348, "lat": 33.960038, "lon": -117.676116}, {"type": "node", "id": 373164350, "lat": 33.960357, "lon": -117.67636}, {"type": "node", "id": 373164351, "lat": 33.960571, "lon": -117.676551}, {"type": "node", "id": 373164354, "lat": 33.96072, "lon": -117.676769}, {"type": "node", "id": 373164362, "lat": 33.960857, "lon": -117.676928}, {"type": "node", "id": 373164364, "lat": 33.960956, "lon": -117.677007}, {"type": "node", "id": 373164365, "lat": 33.961104, "lon": -117.677106}, {"type": "node", "id": 373164366, "lat": 33.961368, "lon": -117.677389}, {"type": "node", "id": 373164367, "lat": 33.961555, "lon": -117.67754}, {"type": "node", "id": 373164368, "lat": 33.961726, "lon": -117.677677}, {"type": "node", "id": 373164370, "lat": 33.961768, "lon": -117.677711}, {"type": "node", "id": 373164371, "lat": 33.961918, "lon": -117.677831}, {"type": "node", "id": 373164372, "lat": 33.962232, "lon": -117.678101}, {"type": "node", "id": 373164373, "lat": 33.962399, "lon": -117.678245}, {"type": "node", "id": 373164374, "lat": 33.962404, "lon": -117.678249}, {"type": "node", "id": 373164375, "lat": 33.962419, "lon": -117.678262}, {"type": "node", "id": 373164376, "lat": 33.962424, "lon": -117.678267}, {"type": "node", "id": 373164377, "lat": 33.963485, "lon": -117.679151}, {"type": "node", "id": 373164378, "lat": 33.963677, "lon": -117.679316}, {"type": "node", "id": 373164379, "lat": 33.96382, "lon": -117.67952}, {"type": "node", "id": 373164380, "lat": 33.963952, "lon": -117.679738}, {"type": "node", "id": 373164382, "lat": 33.964117, "lon": -117.679929}, {"type": "node", "id": 373164383, "lat": 33.964296, "lon": -117.680096}, {"type": "node", "id": 373164384, "lat": 33.965294, "lon": -117.681025}, {"type": "node", "id": 373164385, "lat": 33.967356, "lon": -117.682912}, {"type": "node", "id": 373164386, "lat": 33.967795, "lon": -117.683268}, {"type": "node", "id": 373164387, "lat": 33.968015, "lon": -117.683479}, {"type": "node", "id": 373164388, "lat": 33.968098, "lon": -117.683565}, {"type": "node", "id": 373164389, "lat": 33.968208, "lon": -117.68373}, {"type": "node", "id": 373164390, "lat": 33.968252, "lon": -117.683809}, {"type": "node", "id": 373164391, "lat": 33.968296, "lon": -117.683868}, {"type": "node", "id": 373164392, "lat": 33.968345, "lon": -117.683908}, {"type": "node", "id": 373164393, "lat": 33.968455, "lon": -117.683928}, {"type": "node", "id": 373164396, "lat": 33.968664, "lon": -117.683987}, {"type": "node", "id": 373164397, "lat": 33.968846, "lon": -117.684106}, {"type": "node", "id": 373164398, "lat": 33.968966, "lon": -117.684264}, {"type": "node", "id": 373164399, "lat": 33.969483, "lon": -117.684904}, {"type": "node", "id": 373164400, "lat": 33.969681, "lon": -117.685109}, {"type": "node", "id": 373164401, "lat": 33.969868, "lon": -117.68528}, {"type": "node", "id": 373164402, "lat": 33.969973, "lon": -117.68536}, {"type": "node", "id": 373164403, "lat": 33.97004, "lon": -117.685428}, {"type": "node", "id": 373164404, "lat": 33.970083, "lon": -117.685472}, {"type": "node", "id": 373164405, "lat": 33.970451, "lon": -117.685874}, {"type": "node", "id": 373164407, "lat": 33.970676, "lon": -117.686079}, {"type": "node", "id": 373164416, "lat": 33.97094, "lon": -117.686363}, {"type": "node", "id": 373164418, "lat": 33.971188, "lon": -117.686574}, {"type": "node", "id": 373164419, "lat": 33.971937, "lon": -117.687255}, {"type": "node", "id": 373164420, "lat": 33.972001, "lon": -117.687313}, {"type": "node", "id": 373164421, "lat": 33.972188, "lon": -117.687438}, {"type": "node", "id": 373164422, "lat": 33.972277, "lon": -117.687537}, {"type": "node", "id": 373164435, "lat": 33.974129, "lon": -117.689332}, {"type": "node", "id": 373164442, "lat": 33.9775643, "lon": -117.6920882}, {"type": "node", "id": 373164459, "lat": 33.980269, "lon": -117.695231}, {"type": "node", "id": 373164476, "lat": 33.9821905, "lon": -117.697542}, {"type": "node", "id": 373164483, "lat": 33.9825956, "lon": -117.6982766}, {"type": "node", "id": 373164502, "lat": 33.98245, "lon": -117.699602}, {"type": "node", "id": 373164505, "lat": 33.982459, "lon": -117.699995}, {"type": "node", "id": 373164510, "lat": 33.98249, "lon": -117.700259}, {"type": "node", "id": 373164513, "lat": 33.982502, "lon": -117.700343}, {"type": "node", "id": 373164518, "lat": 33.982548, "lon": -117.700653}, {"type": "node", "id": 373164521, "lat": 33.982632, "lon": -117.701143}, {"type": "node", "id": 373164524, "lat": 33.982724, "lon": -117.701716}, {"type": "node", "id": 373164527, "lat": 33.982764, "lon": -117.702527}, {"type": "node", "id": 373164531, "lat": 33.982758, "lon": -117.703959}, {"type": "node", "id": 373164532, "lat": 33.982746, "lon": -117.704826}, {"type": "node", "id": 373164534, "lat": 33.982731, "lon": -117.706046}, {"type": "node", "id": 373164535, "lat": 33.982716, "lon": -117.706326}, {"type": "node", "id": 373164536, "lat": 33.982705, "lon": -117.706652}, {"type": "node", "id": 373164537, "lat": 33.982676, "lon": -117.707633}, {"type": "node", "id": 373164538, "lat": 33.982667, "lon": -117.70796}, {"type": "node", "id": 373164539, "lat": 33.982659, "lon": -117.708147}, {"type": "node", "id": 373164540, "lat": 33.982643, "lon": -117.708556}, {"type": "node", "id": 373164541, "lat": 33.982646, "lon": -117.708709}, {"type": "node", "id": 373164542, "lat": 33.982651, "lon": -117.708897}, {"type": "node", "id": 373164544, "lat": 33.983253, "lon": -117.709553}, {"type": "node", "id": 373164545, "lat": 33.983893, "lon": -117.710252}, {"type": "node", "id": 373164547, "lat": 33.985147, "lon": -117.711437}, {"type": "node", "id": 373164572, "lat": 33.9888174, "lon": -117.7145416}, {"type": "node", "id": 373164573, "lat": 33.989052, "lon": -117.715191}, {"type": "node", "id": 373164747, "lat": 34.0193958, "lon": -117.767678}, {"type": "node", "id": 373164923, "lat": 34.0198341, "lon": -117.744079}, {"type": "node", "id": 373164925, "lat": 34.019595, "lon": -117.743844}, {"type": "node", "id": 373164927, "lat": 34.018956, "lon": -117.74318}, {"type": "node", "id": 373164930, "lat": 34.018744, "lon": -117.742959}, {"type": "node", "id": 373164932, "lat": 34.018648, "lon": -117.742842}, {"type": "node", "id": 373164935, "lat": 34.018361, "lon": -117.742492}, {"type": "node", "id": 373164937, "lat": 34.018266, "lon": -117.742376}, {"type": "node", "id": 373164940, "lat": 34.018151, "lon": -117.742226}, {"type": "node", "id": 373164942, "lat": 34.017583, "lon": -117.741472}, {"type": "node", "id": 373164945, "lat": 34.016299, "lon": -117.739767}, {"type": "node", "id": 373164947, "lat": 34.01554, "lon": -117.73876}, {"type": "node", "id": 373164950, "lat": 34.014859, "lon": -117.737856}, {"type": "node", "id": 373164952, "lat": 34.014801, "lon": -117.737784}, {"type": "node", "id": 373164954, "lat": 34.014628, "lon": -117.737569}, {"type": "node", "id": 373164957, "lat": 34.014571, "lon": -117.737498}, {"type": "node", "id": 373164959, "lat": 34.013956, "lon": -117.736571}, {"type": "node", "id": 373164962, "lat": 34.012111, "lon": -117.733791}, {"type": "node", "id": 373165164, "lat": 33.8809085, "lon": -117.6689248}, {"type": "node", "id": 373165358, "lat": 33.8829065, "lon": -117.6879349}, {"type": "node", "id": 373165485, "lat": 33.90987, "lon": -117.731806}, {"type": "node", "id": 373165668, "lat": 33.9538418, "lon": -117.7935735}, {"type": "node", "id": 373166610, "lat": 34.0193897, "lon": -117.3363132}, {"type": "node", "id": 373166644, "lat": 34.0193879, "lon": -117.33952}, {"type": "node", "id": 373166790, "lat": 34.0193915, "lon": -117.3710478}, {"type": "node", "id": 373168728, "lat": 34.0192706, "lon": -117.2962787}, {"type": "node", "id": 373182396, "lat": 34.0186981, "lon": -117.2437614}, {"type": "node", "id": 373183218, "lat": 34.055844, "lon": -117.7207161}, {"type": "node", "id": 373183575, "lat": 34.0951449, "lon": -117.704409}, {"type": "node", "id": 373185195, "lat": 34.8624862, "lon": -114.6268893}, {"type": "node", "id": 373185610, "lat": 34.778955, "lon": -114.5618815}, {"type": "node", "id": 373186131, "lat": 34.9022195, "lon": -114.6322898}, {"type": "node", "id": 373191048, "lat": 34.004015, "lon": -117.104737}, {"type": "node", "id": 373191086, "lat": 34.0039989, "lon": -117.1222718}, {"type": "node", "id": 373191328, "lat": 34.0042155, "lon": -117.2253733}, {"type": "node", "id": 373191376, "lat": 34.0181313, "lon": -117.2252052}, {"type": "node", "id": 373212583, "lat": 34.0045547, "lon": -116.9944637}, {"type": "node", "id": 373212674, "lat": 34.004532, "lon": -117.021322}, {"type": "node", "id": 373212766, "lat": 34.0047997, "lon": -117.0345266}, {"type": "node", "id": 373212834, "lat": 34.0041051, "lon": -117.0549529}, {"type": "node", "id": 373213761, "lat": 34.0047531, "lon": -116.9621033}, {"type": "node", "id": 373213828, "lat": 34.0047776, "lon": -116.9716792}, {"type": "node", "id": 373251627, "lat": 32.995991, "lon": -117.3392762, "tags": {"maritime": "yes"}}, {"type": "node", "id": 373251720, "lat": 33.060109, "lon": -117.3682912, "tags": {"maritime": "yes"}}, {"type": "node", "id": 373316821, "lat": 32.5510873, "lon": -116.9280157}, {"type": "node", "id": 373402697, "lat": 37.7082697, "lon": -122.5754041, "tags": {"maritime": "yes"}}, {"type": "node", "id": 373402725, "lat": 37.8138868, "lon": -122.6139438, "tags": {"maritime": "yes"}}, {"type": "node", "id": 373402960, "lat": 37.772053, "lon": -123.00111, "tags": {"maritime": "yes"}}, {"type": "node", "id": 373402963, "lat": 37.770784, "lon": -122.997538, "tags": {"maritime": "yes"}}, {"type": "node", "id": 373402965, "lat": 37.7692015, "lon": -122.9945311, "tags": {"maritime": "yes"}}, {"type": "node", "id": 373402967, "lat": 37.7640703, "lon": -122.9871818, "tags": {"maritime": "yes"}}, {"type": "node", "id": 373402969, "lat": 37.758916, "lon": -122.981429, "tags": {"maritime": "yes"}}, {"type": "node", "id": 373402971, "lat": 37.754976, "lon": -122.977596, "tags": {"maritime": "yes"}}, {"type": "node", "id": 373402973, "lat": 37.752585, "lon": -122.975448, "tags": {"maritime": "yes"}}, {"type": "node", "id": 373402975, "lat": 37.749929, "lon": -122.974061, "tags": {"maritime": "yes"}}, {"type": "node", "id": 373402977, "lat": 37.748652, "lon": -122.973256, "tags": {"maritime": "yes"}}, {"type": "node", "id": 373402980, "lat": 37.747818, "lon": -122.970449, "tags": {"maritime": "yes"}}, {"type": "node", "id": 373402982, "lat": 37.746303, "lon": -122.967271, "tags": {"maritime": "yes"}}, {"type": "node", "id": 373402984, "lat": 37.744281, "lon": -122.964099, "tags": {"maritime": "yes"}}, {"type": "node", "id": 373402985, "lat": 37.741955, "lon": -122.961057, "tags": {"maritime": "yes"}}, {"type": "node", "id": 373402987, "lat": 37.739734, "lon": -122.958391, "tags": {"maritime": "yes"}}, {"type": "node", "id": 373402989, "lat": 37.736827, "lon": -122.95464, "tags": {"maritime": "yes"}}, {"type": "node", "id": 373402995, "lat": 37.732187, "lon": -122.949985, "tags": {"maritime": "yes"}}, {"type": "node", "id": 373403001, "lat": 37.725314, "lon": -122.945523, "tags": {"maritime": "yes"}}, {"type": "node", "id": 373403006, "lat": 37.721057, "lon": -122.942294, "tags": {"maritime": "yes"}}, {"type": "node", "id": 373403012, "lat": 37.71535, "lon": -122.939711, "tags": {"maritime": "yes"}}, {"type": "node", "id": 373403019, "lat": 37.709956, "lon": -122.937917, "tags": {"maritime": "yes"}}, {"type": "node", "id": 373403024, "lat": 37.709241, "lon": -122.937679, "tags": {"maritime": "yes"}}, {"type": "node", "id": 373403032, "lat": 37.702459, "lon": -122.935865, "tags": {"maritime": "yes"}}, {"type": "node", "id": 373403038, "lat": 37.697618, "lon": -122.93571, "tags": {"maritime": "yes"}}, {"type": "node", "id": 373403044, "lat": 37.69093, "lon": -122.937339, "tags": {"maritime": "yes"}}, {"type": "node", "id": 373403049, "lat": 37.686544, "lon": -122.939026, "tags": {"maritime": "yes"}}, {"type": "node", "id": 373403052, "lat": 37.682353, "lon": -122.939661, "tags": {"maritime": "yes"}}, {"type": "node", "id": 373403056, "lat": 37.67658, "lon": -122.941364, "tags": {"maritime": "yes"}}, {"type": "node", "id": 373403060, "lat": 37.669773, "lon": -122.945009, "tags": {"maritime": "yes"}}, {"type": "node", "id": 373403063, "lat": 37.663377, "lon": -122.949068, "tags": {"maritime": "yes"}}, {"type": "node", "id": 373403065, "lat": 37.658348, "lon": -122.954876, "tags": {"maritime": "yes"}}, {"type": "node", "id": 373403069, "lat": 37.651984, "lon": -122.963006, "tags": {"maritime": "yes"}}, {"type": "node", "id": 373403072, "lat": 37.646581, "lon": -122.973012, "tags": {"maritime": "yes"}}, {"type": "node", "id": 373403075, "lat": 37.6439, "lon": -122.980513, "tags": {"maritime": "yes"}}, {"type": "node", "id": 373403079, "lat": 37.641783, "lon": -122.986747}, {"type": "node", "id": 373403137, "lat": 37.711872, "lon": -123.0918, "tags": {"maritime": "yes"}}, {"type": "node", "id": 373403140, "lat": 37.713688, "lon": -123.09285, "tags": {"maritime": "yes"}}, {"type": "node", "id": 373403147, "lat": 37.714067, "lon": -123.094801, "tags": {"maritime": "yes"}}, {"type": "node", "id": 373403156, "lat": 37.713591, "lon": -123.099647, "tags": {"maritime": "yes"}}, {"type": "node", "id": 373403161, "lat": 37.712648, "lon": -123.104921, "tags": {"maritime": "yes"}}, {"type": "node", "id": 373403168, "lat": 37.714045, "lon": -123.115575, "tags": {"maritime": "yes"}}, {"type": "node", "id": 373403174, "lat": 37.715441, "lon": -123.119645, "tags": {"maritime": "yes"}}, {"type": "node", "id": 373403179, "lat": 37.71673, "lon": -123.126114, "tags": {"maritime": "yes"}}, {"type": "node", "id": 373403184, "lat": 37.719393, "lon": -123.132597, "tags": {"maritime": "yes"}}, {"type": "node", "id": 373403188, "lat": 37.72616, "lon": -123.141495, "tags": {"maritime": "yes"}}, {"type": "node", "id": 373403192, "lat": 37.732279, "lon": -123.149127, "tags": {"maritime": "yes"}}, {"type": "node", "id": 373403197, "lat": 37.73784, "lon": -123.156757, "tags": {"maritime": "yes"}}, {"type": "node", "id": 373403203, "lat": 37.743533, "lon": -123.162751, "tags": {"maritime": "yes"}}, {"type": "node", "id": 373403212, "lat": 37.74993, "lon": -123.166699, "tags": {"maritime": "yes"}}, {"type": "node", "id": 373403221, "lat": 37.75593, "lon": -123.169985, "tags": {"maritime": "yes"}}, {"type": "node", "id": 373403227, "lat": 37.7636, "lon": -123.172926, "tags": {"maritime": "yes"}}, {"type": "node", "id": 373403233, "lat": 37.771831, "lon": -123.173763, "tags": {"maritime": "yes"}}, {"type": "node", "id": 373403238, "lat": 37.775727, "lon": -123.173825, "tags": {"maritime": "yes"}}, {"type": "node", "id": 373403244, "lat": 37.776113, "lon": -123.173715, "tags": {"maritime": "yes"}}, {"type": "node", "id": 373403247, "lat": 37.792365, "lon": -123.169107, "tags": {"maritime": "yes"}}, {"type": "node", "id": 373403250, "lat": 37.796885, "lon": -123.166012, "tags": {"maritime": "yes"}}, {"type": "node", "id": 373403253, "lat": 37.802002, "lon": -123.160936, "tags": {"maritime": "yes"}}, {"type": "node", "id": 373403256, "lat": 37.807065, "lon": -123.153863, "tags": {"maritime": "yes"}}, {"type": "node", "id": 373403258, "lat": 37.807444, "lon": -123.153335, "tags": {"maritime": "yes"}}, {"type": "node", "id": 373403263, "lat": 37.811951, "lon": -123.147209, "tags": {"maritime": "yes"}}, {"type": "node", "id": 373403269, "lat": 37.816719, "lon": -123.139441, "tags": {"maritime": "yes"}}, {"type": "node", "id": 373403274, "lat": 37.819676, "lon": -123.132272, "tags": {"maritime": "yes"}}, {"type": "node", "id": 373403280, "lat": 37.821664, "lon": -123.126114, "tags": {"maritime": "yes"}}, {"type": "node", "id": 373403286, "lat": 37.823058, "lon": -123.118289, "tags": {"maritime": "yes"}}, {"type": "node", "id": 373403289, "lat": 37.823106, "lon": -123.1050169, "tags": {"maritime": "yes"}}, {"type": "node", "id": 373403298, "lat": 37.821877, "lon": -123.095261, "tags": {"maritime": "yes"}}, {"type": "node", "id": 373403300, "lat": 37.818151, "lon": -123.081646, "tags": {"maritime": "yes"}}, {"type": "node", "id": 373403303, "lat": 37.81383, "lon": -123.070494, "tags": {"maritime": "yes"}}, {"type": "node", "id": 373403305, "lat": 37.800034, "lon": -123.0485017, "tags": {"maritime": "yes"}}, {"type": "node", "id": 373403307, "lat": 37.788881, "lon": -123.038726, "tags": {"maritime": "yes"}}, {"type": "node", "id": 373403309, "lat": 37.780431, "lon": -123.035097, "tags": {"maritime": "yes"}}, {"type": "node", "id": 373403311, "lat": 37.778375, "lon": -123.033841, "tags": {"maritime": "yes"}}, {"type": "node", "id": 373403314, "lat": 37.777153, "lon": -123.031436, "tags": {"maritime": "yes"}}, {"type": "node", "id": 373403316, "lat": 37.77709, "lon": -123.02585, "tags": {"maritime": "yes"}}, {"type": "node", "id": 373403318, "lat": 37.776069, "lon": -123.01697, "tags": {"maritime": "yes"}}, {"type": "node", "id": 373403321, "lat": 37.7749243, "lon": -123.0108475, "tags": {"maritime": "yes"}}, {"type": "node", "id": 373403324, "lat": 37.773524, "lon": -123.006154, "tags": {"maritime": "yes"}}, {"type": "node", "id": 373405632, "lat": 34.0049135, "lon": -116.9335455}, {"type": "node", "id": 373406529, "lat": 34.0340219, "lon": -116.8944447}, {"type": "node", "id": 373406541, "lat": 34.034012, "lon": -116.876855}, {"type": "node", "id": 373416975, "lat": 33.6629541, "lon": -114.519701}, {"type": "node", "id": 373485209, "lat": 34.0193588, "lon": -117.3647842}, {"type": "node", "id": 373501431, "lat": 33.8604146, "lon": -118.0820343}, {"type": "node", "id": 373501445, "lat": 33.8592564, "lon": -118.0820301}, {"type": "node", "id": 373501450, "lat": 33.8592599, "lon": -118.0827418}, {"type": "node", "id": 373501455, "lat": 33.8585551, "lon": -118.0827376}, {"type": "node", "id": 373501458, "lat": 33.8585516, "lon": -118.0820247}, {"type": "node", "id": 373501467, "lat": 33.8560442, "lon": -118.0820002}, {"type": "node", "id": 373501472, "lat": 33.8560097, "lon": -118.0864718}, {"type": "node", "id": 373501495, "lat": 33.8602563, "lon": -118.0865268}, {"type": "node", "id": 373501502, "lat": 33.8602275, "lon": -118.0900215}, {"type": "node", "id": 373501505, "lat": 33.861259, "lon": -118.0900229}, {"type": "node", "id": 373501509, "lat": 33.8612525, "lon": -118.0908927}, {"type": "node", "id": 373501600, "lat": 33.8766843, "lon": -118.0911913}, {"type": "node", "id": 373501617, "lat": 33.8767346, "lon": -118.0877959}, {"type": "node", "id": 373501633, "lat": 33.8803088, "lon": -118.0878639}, {"type": "node", "id": 373501672, "lat": 33.8804147, "lon": -118.0749328}, {"type": "node", "id": 373501697, "lat": 33.8768158, "lon": -118.0748618}, {"type": "node", "id": 373501701, "lat": 33.876765, "lon": -118.0760654}, {"type": "node", "id": 373501712, "lat": 33.876759, "lon": -118.076941}, {"type": "node", "id": 373501717, "lat": 33.8767393, "lon": -118.0796852}, {"type": "node", "id": 373501725, "lat": 33.8752956, "lon": -118.0796645}, {"type": "node", "id": 373501732, "lat": 33.875299, "lon": -118.0801054}, {"type": "node", "id": 373501741, "lat": 33.8730661, "lon": -118.0801021}, {"type": "node", "id": 373501787, "lat": 33.8731139, "lon": -118.070427}, {"type": "node", "id": 373501802, "lat": 33.8699169, "lon": -118.0703543}, {"type": "node", "id": 373501812, "lat": 33.8699045, "lon": -118.0724267}, {"type": "node", "id": 373501824, "lat": 33.8694536, "lon": -118.0724242}, {"type": "node", "id": 373501841, "lat": 33.869464, "lon": -118.070343}, {"type": "node", "id": 373501884, "lat": 33.8603635, "lon": -118.0701859}, {"type": "node", "id": 373501888, "lat": 33.8603546, "lon": -118.0712849}, {"type": "node", "id": 373501900, "lat": 33.858574, "lon": -118.0712356}, {"type": "node", "id": 373501904, "lat": 33.8585668, "lon": -118.068982}, {"type": "node", "id": 373501964, "lat": 33.8534233, "lon": -118.0705659}, {"type": "node", "id": 373501979, "lat": 33.8544863, "lon": -118.0723053}, {"type": "node", "id": 373501994, "lat": 33.8569778, "lon": -118.0723431}, {"type": "node", "id": 373501995, "lat": 33.8569578, "lon": -118.0751779}, {"type": "node", "id": 373501998, "lat": 33.8562498, "lon": -118.0751786}, {"type": "node", "id": 373505323, "lat": 34.062633, "lon": -117.98243}, {"type": "node", "id": 373505327, "lat": 34.062542, "lon": -117.984305}, {"type": "node", "id": 373505328, "lat": 34.0624326, "lon": -117.9853324}, {"type": "node", "id": 373505336, "lat": 34.0628891, "lon": -117.9853896}, {"type": "node", "id": 373505395, "lat": 34.0551493, "lon": -118.0035433}, {"type": "node", "id": 373505410, "lat": 34.0578066, "lon": -118.007348}, {"type": "node", "id": 373505458, "lat": 34.0640942, "lon": -118.0053362}, {"type": "node", "id": 373506955, "lat": 33.9098012, "lon": -118.1098066}, {"type": "node", "id": 373507061, "lat": 33.8869328, "lon": -118.1081619}, {"type": "node", "id": 373507108, "lat": 33.8795622, "lon": -118.1084478}, {"type": "node", "id": 373507150, "lat": 33.8728848, "lon": -118.1067018}, {"type": "node", "id": 373507164, "lat": 33.8728652, "lon": -118.1085235}, {"type": "node", "id": 373507193, "lat": 33.8688254, "lon": -118.1084683}, {"type": "node", "id": 373507204, "lat": 33.868081, "lon": -118.108466}, {"type": "node", "id": 373507209, "lat": 33.867386, "lon": -118.108455}, {"type": "node", "id": 373507215, "lat": 33.866708, "lon": -118.108445}, {"type": "node", "id": 373507221, "lat": 33.866022, "lon": -118.108434}, {"type": "node", "id": 373507225, "lat": 33.865732, "lon": -118.10843}, {"type": "node", "id": 373507231, "lat": 33.865587, "lon": -118.108429}, {"type": "node", "id": 373507247, "lat": 33.865574, "lon": -118.114279}, {"type": "node", "id": 373507288, "lat": 33.8690709, "lon": -118.1143014}, {"type": "node", "id": 373507313, "lat": 33.869037, "lon": -118.12902}, {"type": "node", "id": 373507318, "lat": 33.868953, "lon": -118.13335}, {"type": "node", "id": 373507324, "lat": 33.86895, "lon": -118.133507}, {"type": "node", "id": 373507330, "lat": 33.868944, "lon": -118.133859}, {"type": "node", "id": 373507363, "lat": 33.8689398, "lon": -118.1466463}, {"type": "node", "id": 373507366, "lat": 33.8689248, "lon": -118.1513585}, {"type": "node", "id": 373507561, "lat": 33.87981, "lon": -118.1514023}, {"type": "node", "id": 373516898, "lat": 33.8465702, "lon": -118.2059253}, {"type": "node", "id": 373516902, "lat": 33.8463771, "lon": -118.2059475}, {"type": "node", "id": 373516907, "lat": 33.8461675, "lon": -118.2059806}, {"type": "node", "id": 373516915, "lat": 33.8457498, "lon": -118.2060557}, {"type": "node", "id": 373516921, "lat": 33.8454642, "lon": -118.2061076}, {"type": "node", "id": 373516925, "lat": 33.8452154, "lon": -118.2061699}, {"type": "node", "id": 373516929, "lat": 33.8446707, "lon": -118.2063111}, {"type": "node", "id": 373516933, "lat": 33.8432293, "lon": -118.2067187}, {"type": "node", "id": 373516966, "lat": 33.841587, "lon": -118.2071726}, {"type": "node", "id": 373516979, "lat": 33.8390687, "lon": -118.2077883}, {"type": "node", "id": 373516983, "lat": 33.8390885, "lon": -118.2113099}, {"type": "node", "id": 373516990, "lat": 33.8361683, "lon": -118.2124028}, {"type": "node", "id": 373517010, "lat": 33.8359226, "lon": -118.2125433}, {"type": "node", "id": 373517016, "lat": 33.835734, "lon": -118.2126666}, {"type": "node", "id": 373517046, "lat": 33.8342821, "lon": -118.2159}, {"type": "node", "id": 373517050, "lat": 33.8322767, "lon": -118.2166742}, {"type": "node", "id": 373517103, "lat": 33.829985, "lon": -118.216897}, {"type": "node", "id": 373517106, "lat": 33.829809, "lon": -118.216846}, {"type": "node", "id": 373517109, "lat": 33.8294268, "lon": -118.216773}, {"type": "node", "id": 373517125, "lat": 33.8258251, "lon": -118.2156988}, {"type": "node", "id": 373517150, "lat": 33.8257074, "lon": -118.2176217}, {"type": "node", "id": 373517155, "lat": 33.825623, "lon": -118.222257}, {"type": "node", "id": 373517181, "lat": 33.824292, "lon": -118.222297}, {"type": "node", "id": 373517191, "lat": 33.8242706, "lon": -118.2246194}, {"type": "node", "id": 373517806, "lat": 33.8458636, "lon": -118.0990239}, {"type": "node", "id": 373517810, "lat": 33.846748, "lon": -118.099438}, {"type": "node", "id": 373517823, "lat": 33.847078, "lon": -118.09959}, {"type": "node", "id": 373517830, "lat": 33.847958, "lon": -118.099966}, {"type": "node", "id": 373517840, "lat": 33.849761, "lon": -118.100527}, {"type": "node", "id": 373517872, "lat": 33.853644, "lon": -118.101555}, {"type": "node", "id": 373517875, "lat": 33.855758, "lon": -118.102105}, {"type": "node", "id": 373517892, "lat": 33.856747, "lon": -118.102369}, {"type": "node", "id": 373517929, "lat": 33.85832, "lon": -118.102788}, {"type": "node", "id": 373517994, "lat": 33.858283, "lon": -118.108316}, {"type": "node", "id": 373518000, "lat": 33.859216, "lon": -118.108331}, {"type": "node", "id": 373518003, "lat": 33.859916, "lon": -118.108342}, {"type": "node", "id": 373518006, "lat": 33.860636, "lon": -118.108353}, {"type": "node", "id": 373518007, "lat": 33.862272, "lon": -118.108379}, {"type": "node", "id": 373518010, "lat": 33.862724, "lon": -118.108386}, {"type": "node", "id": 373518013, "lat": 33.86358, "lon": -118.108398}, {"type": "node", "id": 373518027, "lat": 33.8869616, "lon": -118.1043484}, {"type": "node", "id": 373518030, "lat": 33.8873669, "lon": -118.1043698}, {"type": "node", "id": 373518054, "lat": 33.8874034, "lon": -118.1005854}, {"type": "node", "id": 373518065, "lat": 33.8869771, "lon": -118.1005752}, {"type": "node", "id": 373518069, "lat": 33.8869865, "lon": -118.0998942}, {"type": "node", "id": 373518076, "lat": 33.8874095, "lon": -118.0998971}, {"type": "node", "id": 373518097, "lat": 33.8874155, "lon": -118.0955556}, {"type": "node", "id": 373518100, "lat": 33.884011, "lon": -118.095618}, {"type": "node", "id": 373518104, "lat": 33.881016, "lon": -118.095693}, {"type": "node", "id": 373518108, "lat": 33.880312, "lon": -118.09571}, {"type": "node", "id": 373518111, "lat": 33.880174, "lon": -118.095682}, {"type": "node", "id": 373518112, "lat": 33.878529, "lon": -118.095553}, {"type": "node", "id": 373518113, "lat": 33.878528, "lon": -118.095413}, {"type": "node", "id": 373518114, "lat": 33.878539, "lon": -118.095164}, {"type": "node", "id": 373518115, "lat": 33.878543, "lon": -118.094894}, {"type": "node", "id": 373518116, "lat": 33.878542, "lon": -118.09454}, {"type": "node", "id": 373518117, "lat": 33.878548, "lon": -118.094348}, {"type": "node", "id": 373518124, "lat": 33.878553, "lon": -118.093804}, {"type": "node", "id": 373518125, "lat": 33.878512, "lon": -118.093104}, {"type": "node", "id": 373518126, "lat": 33.878515, "lon": -118.09272}, {"type": "node", "id": 373518127, "lat": 33.879129, "lon": -118.092729}, {"type": "node", "id": 373518129, "lat": 33.879103, "lon": -118.091069}, {"type": "node", "id": 373518130, "lat": 33.8802922, "lon": -118.0910611}, {"type": "node", "id": 373518154, "lat": 33.8804192, "lon": -118.0726769}, {"type": "node", "id": 373518183, "lat": 33.8858563, "lon": -118.072788}, {"type": "node", "id": 373518184, "lat": 33.885876, "lon": -118.0684739}, {"type": "node", "id": 373518186, "lat": 33.8875949, "lon": -118.0685041}, {"type": "node", "id": 373518191, "lat": 33.887621, "lon": -118.0643457}, {"type": "node", "id": 373518192, "lat": 33.8871771, "lon": -118.0642265}, {"type": "node", "id": 373518193, "lat": 33.8872178, "lon": -118.0553342}, {"type": "node", "id": 373518194, "lat": 33.8876903, "lon": -118.0553422}, {"type": "node", "id": 373518195, "lat": 33.887815, "lon": -118.051906}, {"type": "node", "id": 373518196, "lat": 33.887836, "lon": -118.049104}, {"type": "node", "id": 373518200, "lat": 33.887856, "lon": -118.046445}, {"type": "node", "id": 373518204, "lat": 33.887881, "lon": -118.043017}, {"type": "node", "id": 373518210, "lat": 33.887893, "lon": -118.041336}, {"type": "node", "id": 373518218, "lat": 33.887901, "lon": -118.040119}, {"type": "node", "id": 373518226, "lat": 33.88791, "lon": -118.038899}, {"type": "node", "id": 373518228, "lat": 33.88791, "lon": -118.038843}, {"type": "node", "id": 373518229, "lat": 33.887397, "lon": -118.037829}, {"type": "node", "id": 373518230, "lat": 33.884921, "lon": -118.033264}, {"type": "node", "id": 373518232, "lat": 33.884855, "lon": -118.033121}, {"type": "node", "id": 373518235, "lat": 33.884772, "lon": -118.032941}, {"type": "node", "id": 373518238, "lat": 33.882798, "lon": -118.02889}, {"type": "node", "id": 373518243, "lat": 33.882703, "lon": -118.028889}, {"type": "node", "id": 373518251, "lat": 33.882497, "lon": -118.028888}, {"type": "node", "id": 373518258, "lat": 33.882476, "lon": -118.028888}, {"type": "node", "id": 373518262, "lat": 33.881634, "lon": -118.028883}, {"type": "node", "id": 373518265, "lat": 33.880299, "lon": -118.028866}, {"type": "node", "id": 373518267, "lat": 33.879484, "lon": -118.028855}, {"type": "node", "id": 373518270, "lat": 33.878573, "lon": -118.028843}, {"type": "node", "id": 373518275, "lat": 33.878476, "lon": -118.028842}, {"type": "node", "id": 373518278, "lat": 33.877342, "lon": -118.028827}, {"type": "node", "id": 373518281, "lat": 33.875663, "lon": -118.028806}, {"type": "node", "id": 373518285, "lat": 33.875456, "lon": -118.028803}, {"type": "node", "id": 373518496, "lat": 33.8660108, "lon": -118.0376107}, {"type": "node", "id": 373518593, "lat": 33.8623777, "lon": -118.0375311}, {"type": "node", "id": 373518730, "lat": 33.8623371, "lon": -118.0418919}, {"type": "node", "id": 373518861, "lat": 33.8587284, "lon": -118.0418773}, {"type": "node", "id": 373518946, "lat": 33.8586926, "lon": -118.0462107}, {"type": "node", "id": 373519055, "lat": 33.8536065, "lon": -118.0461368}, {"type": "node", "id": 373519155, "lat": 33.8535688, "lon": -118.0504437}, {"type": "node", "id": 373519286, "lat": 33.84988, "lon": -118.0503971}, {"type": "node", "id": 373519292, "lat": 33.8498375, "lon": -118.0547528}, {"type": "node", "id": 373519419, "lat": 33.8462271, "lon": -118.0546981}, {"type": "node", "id": 373519503, "lat": 33.846145, "lon": -118.064414}, {"type": "node", "id": 373519505, "lat": 33.846132, "lon": -118.065991}, {"type": "node", "id": 373519507, "lat": 33.846127, "lon": -118.066651}, {"type": "node", "id": 373519509, "lat": 33.846118, "lon": -118.06772}, {"type": "node", "id": 373519511, "lat": 33.846118, "lon": -118.067738}, {"type": "node", "id": 373519514, "lat": 33.846101, "lon": -118.06992}, {"type": "node", "id": 373519516, "lat": 33.846084, "lon": -118.072091}, {"type": "node", "id": 373519518, "lat": 33.846075, "lon": -118.0732}, {"type": "node", "id": 373519520, "lat": 33.846069, "lon": -118.073914}, {"type": "node", "id": 373519522, "lat": 33.846064, "lon": -118.074479}, {"type": "node", "id": 373519524, "lat": 33.84605, "lon": -118.076245}, {"type": "node", "id": 373519526, "lat": 33.846049, "lon": -118.076405}, {"type": "node", "id": 373519528, "lat": 33.846039, "lon": -118.077693}, {"type": "node", "id": 373519531, "lat": 33.846031, "lon": -118.078704}, {"type": "node", "id": 373519533, "lat": 33.846027, "lon": -118.079261}, {"type": "node", "id": 373519535, "lat": 33.846023, "lon": -118.079699}, {"type": "node", "id": 373519540, "lat": 33.846018, "lon": -118.080412}, {"type": "node", "id": 373519542, "lat": 33.846011, "lon": -118.081318}, {"type": "node", "id": 373519544, "lat": 33.846006, "lon": -118.081981}, {"type": "node", "id": 373519546, "lat": 33.846947, "lon": -118.081991}, {"type": "node", "id": 373519549, "lat": 33.847889, "lon": -118.082001}, {"type": "node", "id": 373519551, "lat": 33.848356, "lon": -118.082006}, {"type": "node", "id": 373519553, "lat": 33.848682, "lon": -118.08201}, {"type": "node", "id": 373519555, "lat": 33.849452, "lon": -118.082017}, {"type": "node", "id": 373519557, "lat": 33.849748, "lon": -118.082023}, {"type": "node", "id": 373519560, "lat": 33.850133, "lon": -118.082027}, {"type": "node", "id": 373519562, "lat": 33.850188, "lon": -118.083512}, {"type": "node", "id": 373519564, "lat": 33.850161, "lon": -118.084611}, {"type": "node", "id": 373519566, "lat": 33.850142, "lon": -118.085411}, {"type": "node", "id": 373519568, "lat": 33.850126, "lon": -118.086533}, {"type": "node", "id": 373519571, "lat": 33.845969, "lon": -118.086804}, {"type": "node", "id": 373519575, "lat": 33.845946, "lon": -118.089751}, {"type": "node", "id": 373519577, "lat": 33.845941, "lon": -118.090484}, {"type": "node", "id": 373519579, "lat": 33.845929, "lon": -118.091919}, {"type": "node", "id": 373519581, "lat": 33.845928, "lon": -118.092124}, {"type": "node", "id": 373519583, "lat": 33.845925, "lon": -118.092398}, {"type": "node", "id": 373519585, "lat": 33.845923, "lon": -118.092837}, {"type": "node", "id": 373519591, "lat": 33.845893, "lon": -118.096653}, {"type": "node", "id": 373520277, "lat": 34.1650662, "lon": -117.6776689}, {"type": "node", "id": 373520359, "lat": 34.1543634, "lon": -117.6822679}, {"type": "node", "id": 373521841, "lat": 33.9744777, "lon": -118.1228268}, {"type": "node", "id": 373521870, "lat": 33.9729911, "lon": -118.1212877}, {"type": "node", "id": 373524033, "lat": 33.8854321, "lon": -118.1872066}, {"type": "node", "id": 373524038, "lat": 33.883667, "lon": -118.1874429}, {"type": "node", "id": 373524040, "lat": 33.8830487, "lon": -118.1875036}, {"type": "node", "id": 373524043, "lat": 33.882157, "lon": -118.1877703}, {"type": "node", "id": 373524047, "lat": 33.8814515, "lon": -118.187886}, {"type": "node", "id": 373524128, "lat": 33.8813096, "lon": -118.208892}, {"type": "node", "id": 373524152, "lat": 33.8749338, "lon": -118.2085277}, {"type": "node", "id": 373524154, "lat": 33.8747971, "lon": -118.2084998}, {"type": "node", "id": 373524156, "lat": 33.8747971, "lon": -118.2081459}, {"type": "node", "id": 373524160, "lat": 33.8744327, "lon": -118.2081408}, {"type": "node", "id": 373524163, "lat": 33.8744314, "lon": -118.2079831}, {"type": "node", "id": 373524166, "lat": 33.8749313, "lon": -118.2079819}, {"type": "node", "id": 373524168, "lat": 33.8749347, "lon": -118.2071184}, {"type": "node", "id": 373524178, "lat": 33.8743512, "lon": -118.2071049}, {"type": "node", "id": 373524201, "lat": 33.870477, "lon": -118.2055203}, {"type": "node", "id": 373530576, "lat": 33.9753945, "lon": -117.8166674}, {"type": "node", "id": 373530580, "lat": 33.9740211, "lon": -117.8166689}, {"type": "node", "id": 373530637, "lat": 33.9628307, "lon": -117.8304267}, {"type": "node", "id": 373530639, "lat": 33.9610254, "lon": -117.8373373}, {"type": "node", "id": 373530674, "lat": 33.9606657, "lon": -117.8549677}, {"type": "node", "id": 373530883, "lat": 33.9902211, "lon": -117.85523}, {"type": "node", "id": 373530896, "lat": 33.9965068, "lon": -117.8638931}, {"type": "node", "id": 373530909, "lat": 33.9967154, "lon": -117.8618661}, {"type": "node", "id": 373530917, "lat": 33.9972276, "lon": -117.8608179}, {"type": "node", "id": 373530920, "lat": 33.9981651, "lon": -117.8606467}, {"type": "node", "id": 373530938, "lat": 33.9991811, "lon": -117.8598751}, {"type": "node", "id": 373530944, "lat": 34.0007705, "lon": -117.8614118}, {"type": "node", "id": 373530952, "lat": 34.0014369, "lon": -117.8600107}, {"type": "node", "id": 373530960, "lat": 34.0001285, "lon": -117.8586498}, {"type": "node", "id": 373530965, "lat": 34.0005791, "lon": -117.8580366}, {"type": "node", "id": 373530968, "lat": 34.0007624, "lon": -117.8577485}, {"type": "node", "id": 373530973, "lat": 34.0010593, "lon": -117.8572824}, {"type": "node", "id": 373531002, "lat": 34.0016791, "lon": -117.8578886}, {"type": "node", "id": 373531010, "lat": 34.002993, "lon": -117.8559513}, {"type": "node", "id": 373531089, "lat": 34.0084864, "lon": -117.8440202}, {"type": "node", "id": 373531097, "lat": 34.0087277, "lon": -117.8435739}, {"type": "node", "id": 373531105, "lat": 34.0088938, "lon": -117.8432995}, {"type": "node", "id": 373531114, "lat": 34.0091745, "lon": -117.8428831}, {"type": "node", "id": 373531121, "lat": 34.0094381, "lon": -117.8425224}, {"type": "node", "id": 373531135, "lat": 34.0094987, "lon": -117.8424493}, {"type": "node", "id": 373531150, "lat": 34.0077304, "lon": -117.8382196}, {"type": "node", "id": 373531203, "lat": 34.0069182, "lon": -117.8398399}, {"type": "node", "id": 373531213, "lat": 34.0065384, "lon": -117.8403038}, {"type": "node", "id": 373531283, "lat": 34.0065398, "lon": -117.8417151}, {"type": "node", "id": 373531288, "lat": 34.0064567, "lon": -117.8402873}, {"type": "node", "id": 373531292, "lat": 34.0050965, "lon": -117.8416899}, {"type": "node", "id": 373531322, "lat": 34.0019272, "lon": -117.840255}, {"type": "node", "id": 373531347, "lat": 34.002166, "lon": -117.8356894}, {"type": "node", "id": 373531350, "lat": 34.0022844, "lon": -117.8353149}, {"type": "node", "id": 373531353, "lat": 34.0028353, "lon": -117.8345996}, {"type": "node", "id": 373531357, "lat": 34.003271, "lon": -117.833962}, {"type": "node", "id": 373531362, "lat": 34.0035371, "lon": -117.8333052}, {"type": "node", "id": 373531366, "lat": 34.0039562, "lon": -117.8317392}, {"type": "node", "id": 373531370, "lat": 34.0054556, "lon": -117.8294434}, {"type": "node", "id": 373531408, "lat": 34.0064172, "lon": -117.8281829}, {"type": "node", "id": 373531413, "lat": 34.0070724, "lon": -117.827376}, {"type": "node", "id": 373531417, "lat": 34.0077233, "lon": -117.826571}, {"type": "node", "id": 373531430, "lat": 34.0089929, "lon": -117.8252191}, {"type": "node", "id": 373531448, "lat": 34.0095655, "lon": -117.8246627}, {"type": "node", "id": 373531453, "lat": 34.009721, "lon": -117.824585}, {"type": "node", "id": 373531456, "lat": 34.009763, "lon": -117.824585}, {"type": "node", "id": 373531460, "lat": 34.009823, "lon": -117.824584}, {"type": "node", "id": 373531465, "lat": 34.00996, "lon": -117.824588}, {"type": "node", "id": 373531470, "lat": 34.01035, "lon": -117.82468}, {"type": "node", "id": 373531475, "lat": 34.010593, "lon": -117.824738}, {"type": "node", "id": 373531482, "lat": 34.011019, "lon": -117.824848}, {"type": "node", "id": 373531490, "lat": 34.011293, "lon": -117.8249}, {"type": "node", "id": 373531500, "lat": 34.011421, "lon": -117.824901}, {"type": "node", "id": 373531508, "lat": 34.011499, "lon": -117.824892}, {"type": "node", "id": 373531516, "lat": 34.011648, "lon": -117.824832}, {"type": "node", "id": 373531523, "lat": 34.01169, "lon": -117.824809}, {"type": "node", "id": 373531530, "lat": 34.01178, "lon": -117.824749}, {"type": "node", "id": 373531536, "lat": 34.011861, "lon": -117.824677}, {"type": "node", "id": 373531541, "lat": 34.011916, "lon": -117.824633}, {"type": "node", "id": 373531547, "lat": 34.011996, "lon": -117.824506}, {"type": "node", "id": 373531562, "lat": 34.0119723, "lon": -117.8239324}, {"type": "node", "id": 373531601, "lat": 34.0105999, "lon": -117.8236078}, {"type": "node", "id": 373531664, "lat": 34.0139128, "lon": -117.8202618}, {"type": "node", "id": 373531674, "lat": 34.0296918, "lon": -117.8202109}, {"type": "node", "id": 373531685, "lat": 34.0312087, "lon": -117.8214991}, {"type": "node", "id": 373531716, "lat": 34.0344841, "lon": -117.8182496}, {"type": "node", "id": 373531730, "lat": 34.0293272, "lon": -117.810742}, {"type": "node", "id": 373531741, "lat": 34.0308961, "lon": -117.8097742}, {"type": "node", "id": 373531747, "lat": 34.0369363, "lon": -117.8056299}, {"type": "node", "id": 373531751, "lat": 34.0369962, "lon": -117.8057321}, {"type": "node", "id": 373531756, "lat": 34.0383086, "lon": -117.8046445}, {"type": "node", "id": 373531766, "lat": 34.0404554, "lon": -117.802926}, {"type": "node", "id": 373531774, "lat": 34.0410258, "lon": -117.8024557}, {"type": "node", "id": 373531778, "lat": 34.041356, "lon": -117.802253}, {"type": "node", "id": 373531782, "lat": 34.041431, "lon": -117.802216}, {"type": "node", "id": 373531786, "lat": 34.0417386, "lon": -117.8020518}, {"type": "node", "id": 373531790, "lat": 34.041958, "lon": -117.801941}, {"type": "node", "id": 373531794, "lat": 34.0424249, "lon": -117.8017298}, {"type": "node", "id": 373531798, "lat": 34.0429101, "lon": -117.8015835}, {"type": "node", "id": 373531946, "lat": 34.0324324, "lon": -117.7851723}, {"type": "node", "id": 373531948, "lat": 34.0261549, "lon": -117.7852311}, {"type": "node", "id": 373531950, "lat": 34.0260345, "lon": -117.7824568}, {"type": "node", "id": 373532029, "lat": 33.9504801, "lon": -118.0935875}, {"type": "node", "id": 373532032, "lat": 33.950269, "lon": -118.09379}, {"type": "node", "id": 373532034, "lat": 33.94917, "lon": -118.094768}, {"type": "node", "id": 373532038, "lat": 33.945908, "lon": -118.097674}, {"type": "node", "id": 373532043, "lat": 33.945617, "lon": -118.097898}, {"type": "node", "id": 373532047, "lat": 33.945287, "lon": -118.098109}, {"type": "node", "id": 373532051, "lat": 33.944902, "lon": -118.098287}, {"type": "node", "id": 373532054, "lat": 33.944209, "lon": -118.098453}, {"type": "node", "id": 373532058, "lat": 33.944137, "lon": -118.09847}, {"type": "node", "id": 373532062, "lat": 33.944063, "lon": -118.098422}, {"type": "node", "id": 373532152, "lat": 33.939699, "lon": -118.095535}, {"type": "node", "id": 373532157, "lat": 33.939037, "lon": -118.095095}, {"type": "node", "id": 373532160, "lat": 33.938449, "lon": -118.094694}, {"type": "node", "id": 373532163, "lat": 33.93841, "lon": -118.094669}, {"type": "node", "id": 373532167, "lat": 33.937844, "lon": -118.094305}, {"type": "node", "id": 373532171, "lat": 33.937464, "lon": -118.094055}, {"type": "node", "id": 373532174, "lat": 33.936538, "lon": -118.093391}, {"type": "node", "id": 373532179, "lat": 33.936363, "lon": -118.09328}, {"type": "node", "id": 373532183, "lat": 33.936247, "lon": -118.093206}, {"type": "node", "id": 373532188, "lat": 33.935366, "lon": -118.092586}, {"type": "node", "id": 373532193, "lat": 33.935267, "lon": -118.092516}, {"type": "node", "id": 373532196, "lat": 33.934546, "lon": -118.092008}, {"type": "node", "id": 373532197, "lat": 33.934115, "lon": -118.0917}, {"type": "node", "id": 373532200, "lat": 33.933397, "lon": -118.091189}, {"type": "node", "id": 373532203, "lat": 33.932816, "lon": -118.090771}, {"type": "node", "id": 373532205, "lat": 33.932426, "lon": -118.090492}, {"type": "node", "id": 373532206, "lat": 33.9320642, "lon": -118.090258}, {"type": "node", "id": 373532221, "lat": 33.9320346, "lon": -118.0973622}, {"type": "node", "id": 373532225, "lat": 33.9320497, "lon": -118.0978539}, {"type": "node", "id": 373532265, "lat": 33.9320343, "lon": -118.1047756}, {"type": "node", "id": 373532270, "lat": 33.9331096, "lon": -118.1060279}, {"type": "node", "id": 373532283, "lat": 33.9246362, "lon": -118.1105183}, {"type": "node", "id": 373532298, "lat": 33.9222713, "lon": -118.1114481}, {"type": "node", "id": 373532319, "lat": 33.9180735, "lon": -118.1114937}, {"type": "node", "id": 373532325, "lat": 33.9143561, "lon": -118.1111651}, {"type": "node", "id": 373532327, "lat": 33.9140426, "lon": -118.1110864}, {"type": "node", "id": 373532328, "lat": 33.9136974, "lon": -118.1110065}, {"type": "node", "id": 373532329, "lat": 33.9134448, "lon": -118.1109819}, {"type": "node", "id": 373532330, "lat": 33.9128045, "lon": -118.1108031}, {"type": "node", "id": 373532910, "lat": 33.972161, "lon": -118.120436}, {"type": "node", "id": 373532914, "lat": 33.971778, "lon": -118.120076}, {"type": "node", "id": 373532916, "lat": 33.970736, "lon": -118.119097}, {"type": "node", "id": 373532918, "lat": 33.970611, "lon": -118.118979}, {"type": "node", "id": 373532920, "lat": 33.970548, "lon": -118.118919}, {"type": "node", "id": 373532922, "lat": 33.969832, "lon": -118.118267}, {"type": "node", "id": 373532925, "lat": 33.969682, "lon": -118.11813}, {"type": "node", "id": 373532933, "lat": 33.969531, "lon": -118.117994}, {"type": "node", "id": 373532935, "lat": 33.968884, "lon": -118.117404}, {"type": "node", "id": 373532937, "lat": 33.96851, "lon": -118.117067}, {"type": "node", "id": 373532939, "lat": 33.968341, "lon": -118.116916}, {"type": "node", "id": 373532941, "lat": 33.968016, "lon": -118.116625}, {"type": "node", "id": 373532943, "lat": 33.967792, "lon": -118.116425}, {"type": "node", "id": 373532945, "lat": 33.96731, "lon": -118.115991}, {"type": "node", "id": 373532947, "lat": 33.967075, "lon": -118.115781}, {"type": "node", "id": 373532949, "lat": 33.967035, "lon": -118.115744}, {"type": "node", "id": 373532951, "lat": 33.966861, "lon": -118.115589}, {"type": "node", "id": 373532954, "lat": 33.966766, "lon": -118.115502}, {"type": "node", "id": 373532958, "lat": 33.965903, "lon": -118.114717}, {"type": "node", "id": 373532960, "lat": 33.965498, "lon": -118.114348}, {"type": "node", "id": 373532962, "lat": 33.965413, "lon": -118.11427}, {"type": "node", "id": 373532964, "lat": 33.964986, "lon": -118.113881}, {"type": "node", "id": 373532967, "lat": 33.964786, "lon": -118.113699}, {"type": "node", "id": 373532970, "lat": 33.964716, "lon": -118.113635}, {"type": "node", "id": 373532973, "lat": 33.964523, "lon": -118.113459}, {"type": "node", "id": 373532975, "lat": 33.963225, "lon": -118.112288}, {"type": "node", "id": 373532977, "lat": 33.963033, "lon": -118.112115}, {"type": "node", "id": 373532979, "lat": 33.962027, "lon": -118.111232}, {"type": "node", "id": 373532981, "lat": 33.961787, "lon": -118.111022}, {"type": "node", "id": 373532983, "lat": 33.961633, "lon": -118.110849}, {"type": "node", "id": 373532986, "lat": 33.961329, "lon": -118.110507}, {"type": "node", "id": 373532988, "lat": 33.961054, "lon": -118.110135}, {"type": "node", "id": 373532990, "lat": 33.960965, "lon": -118.110004}, {"type": "node", "id": 373532992, "lat": 33.960463, "lon": -118.109306}, {"type": "node", "id": 373532994, "lat": 33.960327, "lon": -118.109119}, {"type": "node", "id": 373532996, "lat": 33.960315, "lon": -118.109099}, {"type": "node", "id": 373532999, "lat": 33.959896, "lon": -118.108445}, {"type": "node", "id": 373533001, "lat": 33.959468, "lon": -118.107807}, {"type": "node", "id": 373533003, "lat": 33.958626, "lon": -118.10663}, {"type": "node", "id": 373533005, "lat": 33.958486, "lon": -118.106429}, {"type": "node", "id": 373533007, "lat": 33.95723, "lon": -118.104623}, {"type": "node", "id": 373533010, "lat": 33.957177, "lon": -118.104547}, {"type": "node", "id": 373533012, "lat": 33.956915, "lon": -118.10417}, {"type": "node", "id": 373533014, "lat": 33.956448, "lon": -118.103486}, {"type": "node", "id": 373533021, "lat": 33.9549891, "lon": -118.1014854}, {"type": "node", "id": 373533027, "lat": 33.9536421, "lon": -118.0995921}, {"type": "node", "id": 373533029, "lat": 33.9533461, "lon": -118.0991508}, {"type": "node", "id": 373533646, "lat": 34.0635287, "lon": -118.0113931}, {"type": "node", "id": 373533674, "lat": 34.0610533, "lon": -118.0126234}, {"type": "node", "id": 373533703, "lat": 34.0519856, "lon": -118.0098481}, {"type": "node", "id": 373533705, "lat": 34.0512906, "lon": -118.0101383}, {"type": "node", "id": 373533707, "lat": 34.0503097, "lon": -118.0106189}, {"type": "node", "id": 373533709, "lat": 34.0493488, "lon": -118.0112322}, {"type": "node", "id": 373533711, "lat": 34.0483652, "lon": -118.0119366}, {"type": "node", "id": 373533712, "lat": 34.0474421, "lon": -118.0127418}, {"type": "node", "id": 373533713, "lat": 34.0469344, "lon": -118.013215}, {"type": "node", "id": 373533714, "lat": 34.0461492, "lon": -118.0140377}, {"type": "node", "id": 373533715, "lat": 34.0451903, "lon": -118.0151993}, {"type": "node", "id": 373533716, "lat": 34.0445005, "lon": -118.0162018}, {"type": "node", "id": 373533717, "lat": 34.0436713, "lon": -118.0175979}, {"type": "node", "id": 373533718, "lat": 34.0431703, "lon": -118.0185931}, {"type": "node", "id": 373533721, "lat": 34.0425496, "lon": -118.0200055}, {"type": "node", "id": 373533730, "lat": 34.0418137, "lon": -118.021746}, {"type": "node", "id": 373539860, "lat": 33.8241413, "lon": -118.0633324}, {"type": "node", "id": 373539874, "lat": 33.8221681, "lon": -118.0688961}, {"type": "node", "id": 373539875, "lat": 33.8224835, "lon": -118.0687265}, {"type": "node", "id": 373539876, "lat": 33.8226074, "lon": -118.0687088}, {"type": "node", "id": 373539879, "lat": 33.8240172, "lon": -118.0687512}, {"type": "node", "id": 373539885, "lat": 33.8239746, "lon": -118.0718502}, {"type": "node", "id": 373539889, "lat": 33.8232526, "lon": -118.0718341}, {"type": "node", "id": 373539890, "lat": 33.8234958, "lon": -118.0725171}, {"type": "node", "id": 373539891, "lat": 33.8234476, "lon": -118.0746996}, {"type": "node", "id": 373539892, "lat": 33.8230138, "lon": -118.0746933}, {"type": "node", "id": 373539959, "lat": 33.826282, "lon": -118.0818204}, {"type": "node", "id": 373539976, "lat": 33.8298728, "lon": -118.0827845}, {"type": "node", "id": 373540001, "lat": 33.8306543, "lon": -118.0819528}, {"type": "node", "id": 373540006, "lat": 33.8312647, "lon": -118.0819577}, {"type": "node", "id": 373540012, "lat": 33.8339818, "lon": -118.0817613}, {"type": "node", "id": 373540028, "lat": 33.8339666, "lon": -118.0797342}, {"type": "node", "id": 373540030, "lat": 33.8369123, "lon": -118.0797346}, {"type": "node", "id": 373540044, "lat": 33.8369136, "lon": -118.0788595}, {"type": "node", "id": 373540045, "lat": 33.8386425, "lon": -118.0788675}, {"type": "node", "id": 373540065, "lat": 33.8386553, "lon": -118.0720039}, {"type": "node", "id": 373540066, "lat": 33.8380626, "lon": -118.0720003}, {"type": "node", "id": 373540070, "lat": 33.8380703, "lon": -118.0675541}, {"type": "node", "id": 373540072, "lat": 33.8371706, "lon": -118.0675529}, {"type": "node", "id": 373540076, "lat": 33.8370129, "lon": -118.0675556}, {"type": "node", "id": 373540080, "lat": 33.8366464, "lon": -118.0676097}, {"type": "node", "id": 373540103, "lat": 33.8347094, "lon": -118.067804}, {"type": "node", "id": 373540113, "lat": 33.8347129, "lon": -118.068791}, {"type": "node", "id": 373540114, "lat": 33.832451, "lon": -118.068779}, {"type": "node", "id": 373540115, "lat": 33.8324415, "lon": -118.0676929}, {"type": "node", "id": 373540124, "lat": 33.8333119, "lon": -118.0677054}, {"type": "node", "id": 373540154, "lat": 33.8333415, "lon": -118.0611974}, {"type": "node", "id": 373542802, "lat": 34.0163953, "lon": -118.0575404}, {"type": "node", "id": 373542815, "lat": 34.0177234, "lon": -118.0526188}, {"type": "node", "id": 373542820, "lat": 34.0161798, "lon": -118.0503089}, {"type": "node", "id": 373542822, "lat": 34.0184175, "lon": -118.0484342}, {"type": "node", "id": 373542823, "lat": 34.0201927, "lon": -118.0475886}, {"type": "node", "id": 373542830, "lat": 34.0206289, "lon": -118.0449339}, {"type": "node", "id": 373542831, "lat": 34.0212673, "lon": -118.0439575}, {"type": "node", "id": 373542832, "lat": 34.0219353, "lon": -118.0448064}, {"type": "node", "id": 373542833, "lat": 34.023131, "lon": -118.044217}, {"type": "node", "id": 373542839, "lat": 34.0253383, "lon": -118.0408072}, {"type": "node", "id": 373542842, "lat": 34.0272968, "lon": -118.037499}, {"type": "node", "id": 373542853, "lat": 34.0303217, "lon": -118.0371398}, {"type": "node", "id": 373542855, "lat": 34.0309912, "lon": -118.0371645}, {"type": "node", "id": 373542856, "lat": 34.0313287, "lon": -118.0372152}, {"type": "node", "id": 373542857, "lat": 34.0329596, "lon": -118.037249}, {"type": "node", "id": 373542861, "lat": 34.0318499, "lon": -118.0360792}, {"type": "node", "id": 373542862, "lat": 34.0324986, "lon": -118.0353489}, {"type": "node", "id": 373542863, "lat": 34.031474, "lon": -118.0355857}, {"type": "node", "id": 373542869, "lat": 34.0296316, "lon": -118.0332853}, {"type": "node", "id": 373542886, "lat": 34.0331805, "lon": -118.0282043}, {"type": "node", "id": 373542891, "lat": 34.0328013, "lon": -118.0259465}, {"type": "node", "id": 373542895, "lat": 34.0297851, "lon": -118.0259252}, {"type": "node", "id": 373542912, "lat": 34.032019, "lon": -118.0062502}, {"type": "node", "id": 373542973, "lat": 34.0288768, "lon": -117.9910108}, {"type": "node", "id": 373542991, "lat": 34.0296019, "lon": -117.9917046}, {"type": "node", "id": 373542999, "lat": 34.030842, "lon": -117.9904558}, {"type": "node", "id": 373543029, "lat": 34.0285273, "lon": -117.9870603}, {"type": "node", "id": 373543077, "lat": 34.0315353, "lon": -117.9840614}, {"type": "node", "id": 373543091, "lat": 34.0332982, "lon": -117.9866237}, {"type": "node", "id": 373543094, "lat": 34.0361749, "lon": -117.9837878}, {"type": "node", "id": 373543101, "lat": 34.0343507, "lon": -117.9811571}, {"type": "node", "id": 373543108, "lat": 34.0368112, "lon": -117.9787104}, {"type": "node", "id": 373543111, "lat": 34.0350964, "lon": -117.9761493}, {"type": "node", "id": 373543112, "lat": 34.0334356, "lon": -117.9761273}, {"type": "node", "id": 373543119, "lat": 34.0320018, "lon": -117.977541}, {"type": "node", "id": 373543139, "lat": 34.0271442, "lon": -117.9705103}, {"type": "node", "id": 373543148, "lat": 34.0286028, "lon": -117.9691116}, {"type": "node", "id": 373543151, "lat": 34.0276066, "lon": -117.9676683}, {"type": "node", "id": 373543183, "lat": 34.0313012, "lon": -117.969308}, {"type": "node", "id": 373543191, "lat": 34.0326322, "lon": -117.9712241}, {"type": "node", "id": 373543193, "lat": 34.0320409, "lon": -117.9717916}, {"type": "node", "id": 373543195, "lat": 34.0321796, "lon": -117.9719804}, {"type": "node", "id": 373543197, "lat": 34.0327477, "lon": -117.9714145}, {"type": "node", "id": 373543209, "lat": 34.0335169, "lon": -117.9725192}, {"type": "node", "id": 373543211, "lat": 34.0328738, "lon": -117.9731686}, {"type": "node", "id": 373543213, "lat": 34.0331468, "lon": -117.9735703},